Business_Name,Category,City,Locality,Address,Latitude,Longitude,Website,Phone,Rating,Opening_Hours,Parking,Delivery,Status,Has_Website,Opportunity_Flag,Rating_Band
Bokaro College 1,College,Bokaro,Main Road,"Main Road, Bokaro, Jharkhand",24.174651,84.179567,https://www.bokarocollege1.com,+91-9249827706,4.6,7AM-9PM,Limited,No,Open,Yes,Has Website,Excellent (4.5-5.0)
Dhanbad Restaurant 2,Restaurant,Dhanbad,Market Area,"Market Area, Dhanbad, Jharkhand",22.647983,85.608075,https://www.dhanbadrestaurant2.com,+91-9702632297,3.8,9AM-8PM,Yes,No,Open,Yes,Has Website,Good (3.5-3.9)
Ranchi Jewelry 3,Jewelry,Ranchi,Upper Bazar,"Upper Bazar, Ranchi, Jharkhand",24.367458,85.992558,https://www.ranchijewelry3.com,+91-9465341213,3.9,7AM-9PM,Yes,No,Open,Yes,Has Website,Good (3.5-3.9)
Khunti Mobile Store 4,Mobile Store,Khunti,Harmu,"Harmu, Khunti, Jharkhand",22.743563,83.373802,https://www.khuntimobilestore4.com,+91-9593303705,4.3,24 Hours,Limited,No,Open,Yes,Has Website,Very Good (4.0-4.4)
Dhanbad Electronics 5,Electronics,Dhanbad,Main Road,"Main Road, Dhanbad, Jharkhand",23.93379,86.292273,https://www.dhanbadelectronics5.com,+91-9185675980,4.8,24 Hours,No,No,Open,Yes,Has Website,Excellent (4.5-5.0)
Khunti Mobile Store 6,Mobile Store,Khunti,Market Area,"Market Area, Khunti, Jharkhand",23.960526,86.007281,https://www.khuntimobilestore6.com,+91-9833953718,4.5,8AM-10PM,Limited,Yes,Open,Yes,Has Website,Excellent (4.5-5.0)
Godda Fuel Station 7,Fuel Station,Godda,Bus Stand,"Bus Stand, Godda, Jharkhand",24.91857,85.759999,https://www.goddafuelstation7.com,+91-9698020238,3.8,8AM-10PM,Yes,No,Open,Yes,Has Website,Good (3.5-3.9)
Dhanbad Jewelry 8,Jewelry,Dhanbad,Market Area,"Market Area, Dhanbad, Jharkhand",24.689408,85.46872,https://www.dhanbadjewelry8.com,+91-9870854579,4.0,9AM-8PM,Limited,No,Open,Yes,Has Website,Very Good (4.0-4.4)
Deoghar Jewelry 9,Jewelry,Deoghar,Market Area,"Market Area, Deoghar, Jharkhand",24.184967,85.355909,https://www.deogharjewelry9.com,+91-9902099969,4.4,24 Hours,Yes,Yes,Open,Yes,Has Website,Very Good (4.0-4.4)
Dhanbad Salon 10,Salon,Dhanbad,Upper Bazar,"Upper Bazar, Dhanbad, Jharkhand",22.091349,83.638597,https://www.dhanbadsalon10.com,+91-9773715057,3.7,7AM-9PM,No,No,Open,Yes,Has Website,Good (3.5-3.9)
Simdega Fuel Station 11,Fuel Station,Simdega,Bus Stand,"Bus Stand, Simdega, Jharkhand",24.863235,86.643119,https://www.simdegafuelstation11.com,+91-9112327652,4.5,24 Hours,Limited,No,Open,Yes,Has Website,Excellent (4.5-5.0)
Pakur Furniture 12,Furniture,Pakur,Civil Lines,"Civil Lines, Pakur, Jharkhand",23.311171,87.015264,https://www.pakurfurniture12.com,+91-9872751234,3.9,7AM-9PM,Limited,No,Open,Yes,Has Website,Good (3.5-3.9)
Chatra Gym 13,Gym,Chatra,Market Area,"Market Area, Chatra, Jharkhand",22.408518,86.250043,https://www.chatragym13.com,+91-9679153816,4.9,24 Hours,No,Yes,Open,Yes,Has Website,Excellent (4.5-5.0)
Dumka Mobile Store 14,Mobile Store,Dumka,Market Area,"Market Area, Dumka, Jharkhand",22.123775,86.712038,https://www.dumkamobilestore14.com,+91-9184564737,3.6,8AM-10PM,Yes,No,Open,Yes,Has Website,Good (3.5-3.9)
Chaibasa Bakery 15,Bakery,Chaibasa,Adityapur,"Adityapur, Chaibasa, Jharkhand",24.567299,84.892552,https://www.chaibasabakery15.com,+91-9327416584,4.9,8AM-10PM,Limited,No,Open,Yes,Has Website,Excellent (4.5-5.0)
Koderma Office 16,Office,Koderma,MG Road,"MG Road, Koderma, Jharkhand",23.2643,85.270303,https://www.kodermaoffice16.com,+91-9229927269,3.9,7AM-9PM,Limited,Yes,Open,Yes,Has Website,Good (3.5-3.9)
Ranchi Clothing 17,Clothing,Ranchi,Station Road,"Station Road, Ranchi, Jharkhand",24.073523,83.435495,https://www.ranchiclothing17.com,+91-9172370545,4.9,8AM-10PM,No,No,Open,Yes,Has Website,Excellent (4.5-5.0)
Deoghar Clinic 18,Clinic,Deoghar,Kokar,"Kokar, Deoghar, Jharkhand",24.756543,85.484172,https://www.deogharclinic18.com,+91-9607526654,3.9,8AM-10PM,Yes,Yes,Open,Yes,Has Website,Good (3.5-3.9)
Khunti ATM 19,ATM,Khunti,Bistupur,"Bistupur, Khunti, Jharkhand",23.183307,86.655347,https://www.khuntiatm19.com,+91-9158165865,4.5,7AM-9PM,No,No,Open,Yes,Has Website,Excellent (4.5-5.0)
Ramgarh Clothing 20,Clothing,Ramgarh,Market Area,"Market Area, Ramgarh, Jharkhand",23.558857,83.760729,https://www.ramgarhclothing20.com,+91-9297018781,3.9,9AM-8PM,Limited,Yes,Open,Yes,Has Website,Good (3.5-3.9)
Gumla College 21,College,Gumla,Lower Bazar,"Lower Bazar, Gumla, Jharkhand",21.994274,83.573051,https://www.gumlacollege21.com,+91-9909134796,4.8,9AM-8PM,No,Yes,Open,Yes,Has Website,Excellent (4.5-5.0)
Hazaribagh Cafe 22,Cafe,Hazaribagh,Bistupur,"Bistupur, Hazaribagh, Jharkhand",21.956466,84.761687,https://www.hazaribaghcafe22.com,+91-9941889393,4.7,9AM-8PM,Yes,Yes,Open,Yes,Has Website,Excellent (4.5-5.0)
Jamshedpur Electronics 23,Electronics,Jamshedpur,Harmu,"Harmu, Jamshedpur, Jharkhand",24.157212,83.44383,https://www.jamshedpurelectronics23.com,+91-9436730606,3.6,8AM-10PM,Yes,Yes,Open,Yes,Has Website,Good (3.5-3.9)
Chatra Hotel 24,Hotel,Chatra,Station Road,"Station Road, Chatra, Jharkhand",23.975638,84.140816,https://www.chatrahotel24.com,+91-9228727266,4.9,7AM-9PM,Limited,Yes,Open,Yes,Has Website,Excellent (4.5-5.0)
Lohardaga Office 25,Office,Lohardaga,Harmu,"Harmu, Lohardaga, Jharkhand",23.518348,86.938825,https://www.lohardagaoffice25.com,+91-9319321646,4.5,24 Hours,No,Yes,Open,Yes,Has Website,Excellent (4.5-5.0)
Dumka College 26,College,Dumka,Sakchi,"Sakchi, Dumka, Jharkhand",22.898532,86.207458,https://www.dumkacollege26.com,+91-9177892576,3.5,7AM-9PM,Yes,Yes,Open,Yes,Has Website,Good (3.5-3.9)
Deoghar Jewelry 27,Jewelry,Deoghar,MG Road,"MG Road, Deoghar, Jharkhand",24.592593,86.717081,https://www.deogharjewelry27.com,+91-9496776692,3.9,24 Hours,Limited,Yes,Open,Yes,Has Website,Good (3.5-3.9)
Dumka Clinic 28,Clinic,Dumka,Kanke,"Kanke, Dumka, Jharkhand",22.26076,86.712508,https://www.dumkaclinic28.com,+91-9383968123,3.7,8AM-10PM,No,No,Open,Yes,Has Website,Good (3.5-3.9)
Medininagar Electronics 29,Electronics,Medininagar,Market Area,"Market Area, Medininagar, Jharkhand",24.012491,86.611651,https://www.medininagarelectronics29.com,+91-9642678844,4.2,7AM-9PM,Limited,No,Open,Yes,Has Website,Very Good (4.0-4.4)
Ranchi Cafe 30,Cafe,Ranchi,MG Road,"MG Road, Ranchi, Jharkhand",24.263358,85.748454,https://www.ranchicafe30.com,+91-9381272327,3.7,9AM-8PM,Limited,Yes,Open,Yes,Has Website,Good (3.5-3.9)
Deoghar Hotel 31,Hotel,Deoghar,Adityapur,"Adityapur, Deoghar, Jharkhand",22.058084,84.676864,https://www.deogharhotel31.com,+91-9693269304,3.7,24 Hours,No,Yes,Open,Yes,Has Website,Good (3.5-3.9)
Giridih Electronics 32,Electronics,Giridih,Kanke,"Kanke, Giridih, Jharkhand",22.258381,86.320465,https://www.giridihelectronics32.com,+91-9536344399,5.0,8AM-10PM,Yes,Yes,Open,Yes,Has Website,Excellent (4.5-5.0)
Hazaribagh Restaurant 33,Restaurant,Hazaribagh,Kokar,"Kokar, Hazaribagh, Jharkhand",24.723462,86.329546,https://www.hazaribaghrestaurant33.com,+91-9542073642,4.7,24 Hours,Yes,Yes,Open,Yes,Has Website,Excellent (4.5-5.0)
Latehar Cafe 34,Cafe,Latehar,Market Area,"Market Area, Latehar, Jharkhand",22.548718,86.873808,https://www.lateharcafe34.com,+91-9475442872,4.0,8AM-10PM,Yes,Yes,Open,Yes,Has Website,Very Good (4.0-4.4)
Chaibasa Hardware 35,Hardware,Chaibasa,Lower Bazar,"Lower Bazar, Chaibasa, Jharkhand",22.158262,86.293307,https://www.chaibasahardware35.com,+91-9477040284,4.5,24 Hours,Yes,Yes,Open,Yes,Has Website,Excellent (4.5-5.0)
Lohardaga Bakery 36,Bakery,Lohardaga,Bus Stand,"Bus Stand, Lohardaga, Jharkhand",22.064772,85.586285,https://www.lohardagabakery36.com,+91-9471178705,4.6,7AM-9PM,No,Yes,Open,Yes,Has Website,Excellent (4.5-5.0)
Pakur Cafe 37,Cafe,Pakur,Main Road,"Main Road, Pakur, Jharkhand",23.509761,86.426043,https://www.pakurcafe37.com,+91-9837507241,4.6,8AM-10PM,No,No,Open,Yes,Has Website,Excellent (4.5-5.0)
Medininagar Office 38,Office,Medininagar,Harmu,"Harmu, Medininagar, Jharkhand",22.891747,86.592061,https://www.medininagaroffice38.com,+91-9872830248,4.9,9AM-8PM,No,No,Open,Yes,Has Website,Excellent (4.5-5.0)
Gumla Furniture 39,Furniture,Gumla,Civil Lines,"Civil Lines, Gumla, Jharkhand",22.52552,85.859718,https://www.gumlafurniture39.com,+91-9507104143,4.5,24 Hours,No,Yes,Open,Yes,Has Website,Excellent (4.5-5.0)
Ramgarh Furniture 40,Furniture,Ramgarh,Bistupur,"Bistupur, Ramgarh, Jharkhand",24.307276,85.626646,https://www.ramgarhfurniture40.com,+91-9446012478,4.2,8AM-10PM,Limited,No,Open,Yes,Has Website,Very Good (4.0-4.4)
Dhanbad Bakery 41,Bakery,Dhanbad,Bus Stand,"Bus Stand, Dhanbad, Jharkhand",23.496356,85.731763,https://www.dhanbadbakery41.com,+91-9459905654,3.6,24 Hours,Yes,Yes,Open,Yes,Has Website,Good (3.5-3.9)
Jamshedpur Restaurant 42,Restaurant,Jamshedpur,Market Area,"Market Area, Jamshedpur, Jharkhand",24.901808,85.645096,https://www.jamshedpurrestaurant42.com,+91-9925159146,3.6,8AM-10PM,Limited,No,Open,Yes,Has Website,Good (3.5-3.9)
Giridih Bank 43,Bank,Giridih,Civil Lines,"Civil Lines, Giridih, Jharkhand",23.918174,83.222179,https://www.giridihbank43.com,+91-9906341966,4.8,8AM-10PM,Yes,No,Open,Yes,Has Website,Excellent (4.5-5.0)
Giridih Clinic 44,Clinic,Giridih,Lower Bazar,"Lower Bazar, Giridih, Jharkhand",22.314076,83.733356,https://www.giridihclinic44.com,+91-9598906879,4.5,24 Hours,No,No,Open,Yes,Has Website,Excellent (4.5-5.0)
Hazaribagh Fuel Station 45,Fuel Station,Hazaribagh,Kokar,"Kokar, Hazaribagh, Jharkhand",24.534485,85.000279,https://www.hazaribaghfuelstation45.com,+91-9907214179,3.9,9AM-8PM,Limited,Yes,Open,Yes,Has Website,Good (3.5-3.9)
Dhanbad Fuel Station 46,Fuel Station,Dhanbad,Kokar,"Kokar, Dhanbad, Jharkhand",22.807184,84.28686,https://www.dhanbadfuelstation46.com,+91-9443285529,4.8,8AM-10PM,Yes,No,Open,Yes,Has Website,Excellent (4.5-5.0)
Ramgarh Supermarket 47,Supermarket,Ramgarh,Station Road,"Station Road, Ramgarh, Jharkhand",23.194604,84.523526,https://www.ramgarhsupermarket47.com,+91-9600282414,4.1,9AM-8PM,Limited,Yes,Open,Yes,Has Website,Very Good (4.0-4.4)
Latehar Bank 48,Bank,Latehar,Main Road,"Main Road, Latehar, Jharkhand",24.778225,84.394451,https://www.lateharbank48.com,+91-9518744974,4.8,8AM-10PM,No,Yes,Open,Yes,Has Website,Excellent (4.5-5.0)
Latehar ATM 49,ATM,Latehar,Main Road,"Main Road, Latehar, Jharkhand",23.116572,85.875494,https://www.lateharatm49.com,+91-9956998797,4.1,8AM-10PM,Limited,Yes,Open,Yes,Has Website,Very Good (4.0-4.4)
Lohardaga Hospital 50,Hospital,Lohardaga,Kanke,"Kanke, Lohardaga, Jharkhand",22.031306,85.770999,https://www.lohardagahospital50.com,+91-9245706210,4.8,24 Hours,No,No,Open,Yes,Has Website,Excellent (4.5-5.0)
Medininagar Fuel Station 51,Fuel Station,Medininagar,MG Road,"MG Road, Medininagar, Jharkhand",24.233689,84.716505,https://www.medininagarfuelstation51.com,+91-9907464398,4.9,7AM-9PM,No,Yes,Open,Yes,Has Website,Excellent (4.5-5.0)
Jamshedpur Clinic 52,Clinic,Jamshedpur,MG Road,"MG Road, Jamshedpur, Jharkhand",22.622666,83.474473,https://www.jamshedpurclinic52.com,+91-9799816232,3.6,8AM-10PM,Yes,Yes,Open,Yes,Has Website,Good (3.5-3.9)
Latehar Supermarket 53,Supermarket,Latehar,Kanke,"Kanke, Latehar, Jharkhand",22.293168,86.991028,https://www.lateharsupermarket53.com,+91-9599326438,4.5,8AM-10PM,Limited,Yes,Open,Yes,Has Website,Excellent (4.5-5.0)
Bokaro Furniture 54,Furniture,Bokaro,Harmu,"Harmu, Bokaro, Jharkhand",22.027035,84.447829,https://www.bokarofurniture54.com,+91-9827296111,4.9,8AM-10PM,Yes,Yes,Open,Yes,Has Website,Excellent (4.5-5.0)
Chatra Furniture 55,Furniture,Chatra,Upper Bazar,"Upper Bazar, Chatra, Jharkhand",22.313165,87.135377,https://www.chatrafurniture55.com,+91-9940348305,3.6,24 Hours,Yes,No,Open,Yes,Has Website,Good (3.5-3.9)
Latehar ATM 56,ATM,Latehar,Station Road,"Station Road, Latehar, Jharkhand",23.25057,84.648752,https://www.lateharatm56.com,+91-9989817696,4.2,8AM-10PM,Limited,No,Open,Yes,Has Website,Very Good (4.0-4.4)
Latehar Clinic 57,Clinic,Latehar,Sakchi,"Sakchi, Latehar, Jharkhand",23.256723,86.124105,https://www.lateharclinic57.com,+91-9388187517,4.0,24 Hours,No,Yes,Open,Yes,Has Website,Very Good (4.0-4.4)
Chatra Hospital 58,Hospital,Chatra,Kanke,"Kanke, Chatra, Jharkhand",23.086968,83.3148,https://www.chatrahospital58.com,+91-9448981305,3.8,24 Hours,No,No,Open,Yes,Has Website,Good (3.5-3.9)
Gumla Jewelry 59,Jewelry,Gumla,Main Road,"Main Road, Gumla, Jharkhand",23.499882,83.964226,https://www.gumlajewelry59.com,+91-9359154084,4.6,8AM-10PM,Limited,No,Open,Yes,Has Website,Excellent (4.5-5.0)
Sahibganj Salon 60,Salon,Sahibganj,Upper Bazar,"Upper Bazar, Sahibganj, Jharkhand",22.00173,84.376942,https://www.sahibganjsalon60.com,+91-9534222401,4.5,24 Hours,No,No,Open,Yes,Has Website,Excellent (4.5-5.0)
Medininagar Clinic 61,Clinic,Medininagar,MG Road,"MG Road, Medininagar, Jharkhand",24.058565,84.283666,https://www.medininagarclinic61.com,+91-9369942642,3.8,24 Hours,Yes,Yes,Open,Yes,Has Website,Good (3.5-3.9)
Latehar Electronics 62,Electronics,Latehar,Bus Stand,"Bus Stand, Latehar, Jharkhand",24.123755,87.106428,https://www.lateharelectronics62.com,+91-9663324548,4.4,24 Hours,Yes,No,Open,Yes,Has Website,Very Good (4.0-4.4)
Ranchi Furniture 63,Furniture,Ranchi,Kokar,"Kokar, Ranchi, Jharkhand",23.552405,84.297245,https://www.ranchifurniture63.com,+91-9158546865,4.3,9AM-8PM,Yes,Yes,Open,Yes,Has Website,Very Good (4.0-4.4)
Latehar Furniture 64,Furniture,Latehar,Sakchi,"Sakchi, Latehar, Jharkhand",23.271406,83.937455,https://www.lateharfurniture64.com,+91-9155165334,3.9,7AM-9PM,No,No,Open,Yes,Has Website,Good (3.5-3.9)
Koderma Hospital 65,Hospital,Koderma,Kanke,"Kanke, Koderma, Jharkhand",22.110827,83.79679,https://www.kodermahospital65.com,+91-9704344408,4.9,7AM-9PM,Limited,No,Open,Yes,Has Website,Excellent (4.5-5.0)
Chatra School 66,School,Chatra,Market Area,"Market Area, Chatra, Jharkhand",24.277081,84.721512,https://www.chatraschool66.com,+91-9575368059,3.9,24 Hours,Limited,Yes,Open,Yes,Has Website,Good (3.5-3.9)
Ramgarh Grocery Store 67,Grocery Store,Ramgarh,Kanke,"Kanke, Ramgarh, Jharkhand",22.583076,85.841713,https://www.ramgarhgrocerystore67.com,+91-9268638768,3.9,8AM-10PM,Yes,No,Open,Yes,Has Website,Good (3.5-3.9)
Latehar School 68,School,Latehar,Bus Stand,"Bus Stand, Latehar, Jharkhand",22.04792,84.35242,https://www.lateharschool68.com,+91-9403566540,4.6,8AM-10PM,No,Yes,Open,Yes,Has Website,Excellent (4.5-5.0)
Gumla Grocery Store 69,Grocery Store,Gumla,Market Area,"Market Area, Gumla, Jharkhand",23.892904,86.833646,https://www.gumlagrocerystore69.com,+91-9987588450,3.7,24 Hours,Limited,No,Open,Yes,Has Website,Good (3.5-3.9)
Sahibganj Grocery Store 70,Grocery Store,Sahibganj,Kokar,"Kokar, Sahibganj, Jharkhand",22.862274,84.810034,https://www.sahibganjgrocerystore70.com,+91-9392322121,4.3,7AM-9PM,Limited,Yes,Open,Yes,Has Website,Very Good (4.0-4.4)
Chatra Hardware 71,Hardware,Chatra,Bus Stand,"Bus Stand, Chatra, Jharkhand",22.027595,84.115698,https://www.chatrahardware71.com,+91-9824022357,4.8,7AM-9PM,Limited,No,Open,Yes,Has Website,Excellent (4.5-5.0)
Hazaribagh Cafe 72,Cafe,Hazaribagh,Sakchi,"Sakchi, Hazaribagh, Jharkhand",23.506892,84.968918,https://www.hazaribaghcafe72.com,+91-9398668350,3.8,9AM-8PM,Yes,No,Open,Yes,Has Website,Good (3.5-3.9)
Medininagar ATM 73,ATM,Medininagar,MG Road,"MG Road, Medininagar, Jharkhand",23.960401,86.630932,https://www.medininagaratm73.com,+91-9454123990,4.1,9AM-8PM,Limited,Yes,Open,Yes,Has Website,Very Good (4.0-4.4)
Medininagar Hotel 74,Hotel,Medininagar,Bus Stand,"Bus Stand, Medininagar, Jharkhand",22.919821,87.080739,https://www.medininagarhotel74.com,+91-9533979662,4.8,9AM-8PM,No,Yes,Open,Yes,Has Website,Excellent (4.5-5.0)
Khunti Gym 75,Gym,Khunti,Harmu,"Harmu, Khunti, Jharkhand",24.219329,85.701635,https://www.khuntigym75.com,+91-9916033628,3.6,8AM-10PM,No,No,Open,Yes,Has Website,Good (3.5-3.9)
Bokaro Salon 76,Salon,Bokaro,Main Road,"Main Road, Bokaro, Jharkhand",24.86944,85.635487,https://www.bokarosalon76.com,+91-9356943695,4.6,7AM-9PM,Limited,No,Open,Yes,Has Website,Excellent (4.5-5.0)
Bokaro Clothing 77,Clothing,Bokaro,Sakchi,"Sakchi, Bokaro, Jharkhand",24.791182,85.790839,https://www.bokaroclothing77.com,+91-9265325235,4.2,24 Hours,No,No,Open,Yes,Has Website,Very Good (4.0-4.4)
Sahibganj Clothing 78,Clothing,Sahibganj,Adityapur,"Adityapur, Sahibganj, Jharkhand",22.383926,83.962441,https://www.sahibganjclothing78.com,+91-9743576792,4.3,24 Hours,No,No,Open,Yes,Has Website,Very Good (4.0-4.4)
Ranchi Jewelry 79,Jewelry,Ranchi,Bus Stand,"Bus Stand, Ranchi, Jharkhand",24.128153,86.549904,https://www.ranchijewelry79.com,+91-9722687986,5.0,9AM-8PM,Limited,No,Open,Yes,Has Website,Excellent (4.5-5.0)
Gumla Hardware 80,Hardware,Gumla,Upper Bazar,"Upper Bazar, Gumla, Jharkhand",23.58029,85.021378,https://www.gumlahardware80.com,+91-9445505799,4.8,9AM-8PM,Yes,No,Open,Yes,Has Website,Excellent (4.5-5.0)
Latehar Hardware 81,Hardware,Latehar,Kokar,"Kokar, Latehar, Jharkhand",24.690291,84.724925,https://www.lateharhardware81.com,+91-9812630453,4.7,9AM-8PM,Yes,Yes,Open,Yes,Has Website,Excellent (4.5-5.0)
Medininagar Hospital 82,Hospital,Medininagar,Lower Bazar,"Lower Bazar, Medininagar, Jharkhand",22.251094,86.580158,https://www.medininagarhospital82.com,+91-9207064620,4.3,8AM-10PM,No,Yes,Open,Yes,Has Website,Very Good (4.0-4.4)
Chaibasa Salon 83,Salon,Chaibasa,MG Road,"MG Road, Chaibasa, Jharkhand",23.819778,84.789933,https://www.chaibasasalon83.com,+91-9186237917,4.8,9AM-8PM,No,No,Open,Yes,Has Website,Excellent (4.5-5.0)
Chatra Cafe 84,Cafe,Chatra,Station Road,"Station Road, Chatra, Jharkhand",22.654311,85.937598,https://www.chatracafe84.com,+91-9408570854,5.0,9AM-8PM,Yes,Yes,Open,Yes,Has Website,Excellent (4.5-5.0)
Dumka Bakery 85,Bakery,Dumka,Main Road,"Main Road, Dumka, Jharkhand",22.087973,86.384574,https://www.dumkabakery85.com,+91-9415001254,4.0,8AM-10PM,Limited,No,Open,Yes,Has Website,Very Good (4.0-4.4)
Hazaribagh Office 86,Office,Hazaribagh,Civil Lines,"Civil Lines, Hazaribagh, Jharkhand",22.475208,85.637967,https://www.hazaribaghoffice86.com,+91-9510753814,4.4,8AM-10PM,Yes,No,Open,Yes,Has Website,Very Good (4.0-4.4)
Sahibganj Jewelry 87,Jewelry,Sahibganj,Bus Stand,"Bus Stand, Sahibganj, Jharkhand",23.950522,86.795634,https://www.sahibganjjewelry87.com,+91-9599561877,4.9,8AM-10PM,Yes,No,Open,Yes,Has Website,Excellent (4.5-5.0)
Dumka Hospital 88,Hospital,Dumka,Kanke,"Kanke, Dumka, Jharkhand",24.836087,85.961254,https://www.dumkahospital88.com,+91-9590523712,4.8,9AM-8PM,Yes,Yes,Open,Yes,Has Website,Excellent (4.5-5.0)
Khunti Hospital 89,Hospital,Khunti,Harmu,"Harmu, Khunti, Jharkhand",22.837617,85.997116,https://www.khuntihospital89.com,+91-9123557463,5.0,24 Hours,Yes,Yes,Open,Yes,Has Website,Excellent (4.5-5.0)
Dumka Salon 90,Salon,Dumka,Upper Bazar,"Upper Bazar, Dumka, Jharkhand",24.34658,85.62826,https://www.dumkasalon90.com,+91-9478301747,3.8,24 Hours,Limited,Yes,Open,Yes,Has Website,Good (3.5-3.9)
Koderma Grocery Store 91,Grocery Store,Koderma,Kanke,"Kanke, Koderma, Jharkhand",22.068268,86.354442,https://www.kodermagrocerystore91.com,+91-9135824891,4.4,7AM-9PM,No,No,Open,Yes,Has Website,Very Good (4.0-4.4)
Hazaribagh ATM 92,ATM,Hazaribagh,Market Area,"Market Area, Hazaribagh, Jharkhand",22.346479,85.357631,https://www.hazaribaghatm92.com,+91-9492836532,4.3,24 Hours,No,No,Open,Yes,Has Website,Very Good (4.0-4.4)
Bokaro Hardware 93,Hardware,Bokaro,Sakchi,"Sakchi, Bokaro, Jharkhand",24.83868,83.763028,https://www.bokarohardware93.com,+91-9342251928,4.8,9AM-8PM,Limited,No,Open,Yes,Has Website,Excellent (4.5-5.0)
Ranchi Bank 94,Bank,Ranchi,Bus Stand,"Bus Stand, Ranchi, Jharkhand",23.559717,85.019144,https://www.ranchibank94.com,+91-9822443971,4.6,9AM-8PM,Limited,No,Open,Yes,Has Website,Excellent (4.5-5.0)
Giridih Office 95,Office,Giridih,Sakchi,"Sakchi, Giridih, Jharkhand",22.025074,86.736939,https://www.giridihoffice95.com,+91-9702806585,4.0,7AM-9PM,Limited,No,Open,Yes,Has Website,Very Good (4.0-4.4)
Koderma Furniture 96,Furniture,Koderma,Bistupur,"Bistupur, Koderma, Jharkhand",22.300028,83.381387,https://www.kodermafurniture96.com,+91-9139956218,4.0,7AM-9PM,Yes,Yes,Open,Yes,Has Website,Very Good (4.0-4.4)
Khunti Fuel Station 97,Fuel Station,Khunti,Kanke,"Kanke, Khunti, Jharkhand",24.798142,85.985936,https://www.khuntifuelstation97.com,+91-9680027275,4.1,9AM-8PM,Limited,Yes,Open,Yes,Has Website,Very Good (4.0-4.4)
Pakur School 98,School,Pakur,Bus Stand,"Bus Stand, Pakur, Jharkhand",22.048149,84.68212,https://www.pakurschool98.com,+91-9576078963,4.2,7AM-9PM,Limited,No,Open,Yes,Has Website,Very Good (4.0-4.4)
Khunti College 99,College,Khunti,Main Road,"Main Road, Khunti, Jharkhand",23.144419,83.959234,https://www.khunticollege99.com,+91-9231167999,4.9,7AM-9PM,Limited,Yes,Open,Yes,Has Website,Excellent (4.5-5.0)
Chatra College 100,College,Chatra,Main Road,"Main Road, Chatra, Jharkhand",22.101736,84.534037,https://www.chatracollege100.com,+91-9235209737,4.7,8AM-10PM,Limited,Yes,Open,Yes,Has Website,Excellent (4.5-5.0)
Deoghar Hardware 101,Hardware,Deoghar,Upper Bazar,"Upper Bazar, Deoghar, Jharkhand",24.651593,83.211342,https://www.deogharhardware101.com,+91-9255357534,5.0,8AM-10PM,Yes,Yes,Open,Yes,Has Website,Excellent (4.5-5.0)
Khunti Restaurant 102,Restaurant,Khunti,Upper Bazar,"Upper Bazar, Khunti, Jharkhand",24.315295,85.555412,https://www.khuntirestaurant102.com,+91-9116944811,3.8,9AM-8PM,Limited,Yes,Open,Yes,Has Website,Good (3.5-3.9)
Latehar Hotel 103,Hotel,Latehar,Sakchi,"Sakchi, Latehar, Jharkhand",24.284051,85.252952,https://www.lateharhotel103.com,+91-9217095851,4.2,7AM-9PM,Limited,No,Open,Yes,Has Website,Very Good (4.0-4.4)
Ranchi College 104,College,Ranchi,Main Road,"Main Road, Ranchi, Jharkhand",24.94576,86.589194,https://www.ranchicollege104.com,+91-9557707813,4.5,9AM-8PM,Yes,Yes,Open,Yes,Has Website,Excellent (4.5-5.0)
Deoghar School 105,School,Deoghar,Station Road,"Station Road, Deoghar, Jharkhand",22.328575,85.69727,https://www.deogharschool105.com,+91-9728530544,4.3,24 Hours,No,No,Open,Yes,Has Website,Very Good (4.0-4.4)
Koderma Grocery Store 106,Grocery Store,Koderma,Kanke,"Kanke, Koderma, Jharkhand",24.583119,85.405341,https://www.kodermagrocerystore106.com,+91-9330879256,4.1,24 Hours,No,No,Open,Yes,Has Website,Very Good (4.0-4.4)
Medininagar Grocery Store 107,Grocery Store,Medininagar,Bistupur,"Bistupur, Medininagar, Jharkhand",22.887571,84.219559,https://www.medininagargrocerystore107.com,+91-9263894795,4.5,7AM-9PM,Yes,Yes,Open,Yes,Has Website,Excellent (4.5-5.0)
Khunti Grocery Store 108,Grocery Store,Khunti,Upper Bazar,"Upper Bazar, Khunti, Jharkhand",22.340346,83.439924,https://www.khuntigrocerystore108.com,+91-9702998820,4.3,9AM-8PM,No,No,Open,Yes,Has Website,Very Good (4.0-4.4)
Dumka Cafe 109,Cafe,Dumka,Harmu,"Harmu, Dumka, Jharkhand",22.887347,83.614402,https://www.dumkacafe109.com,+91-9644830077,3.8,8AM-10PM,Yes,No,Open,Yes,Has Website,Good (3.5-3.9)
Bokaro Mobile Store 110,Mobile Store,Bokaro,Upper Bazar,"Upper Bazar, Bokaro, Jharkhand",22.785705,84.104636,https://www.bokaromobilestore110.com,+91-9560755939,4.8,7AM-9PM,Limited,No,Open,Yes,Has Website,Excellent (4.5-5.0)
Chaibasa Bakery 111,Bakery,Chaibasa,Kokar,"Kokar, Chaibasa, Jharkhand",24.237229,86.88615,https://www.chaibasabakery111.com,+91-9476908532,3.5,9AM-8PM,Yes,Yes,Open,Yes,Has Website,Good (3.5-3.9)
Ranchi College 112,College,Ranchi,Station Road,"Station Road, Ranchi, Jharkhand",24.188335,84.060532,https://www.ranchicollege112.com,+91-9550791704,4.2,24 Hours,Limited,No,Open,Yes,Has Website,Very Good (4.0-4.4)
Dhanbad School 113,School,Dhanbad,Main Road,"Main Road, Dhanbad, Jharkhand",22.41674,86.217744,https://www.dhanbadschool113.com,+91-9153432064,4.5,9AM-8PM,No,No,Open,Yes,Has Website,Excellent (4.5-5.0)
Ramgarh Jewelry 114,Jewelry,Ramgarh,Upper Bazar,"Upper Bazar, Ramgarh, Jharkhand",23.487039,84.580691,https://www.ramgarhjewelry114.com,+91-9219066986,3.9,9AM-8PM,Limited,No,Open,Yes,Has Website,Good (3.5-3.9)
Godda Clothing 115,Clothing,Godda,Harmu,"Harmu, Godda, Jharkhand",22.114346,84.017692,https://www.goddaclothing115.com,+91-9326810757,4.7,24 Hours,No,Yes,Open,Yes,Has Website,Excellent (4.5-5.0)
Pakur Salon 116,Salon,Pakur,Civil Lines,"Civil Lines, Pakur, Jharkhand",22.337557,85.330329,https://www.pakursalon116.com,+91-9347079497,4.3,24 Hours,Yes,No,Open,Yes,Has Website,Very Good (4.0-4.4)
Pakur Cafe 117,Cafe,Pakur,Main Road,"Main Road, Pakur, Jharkhand",23.329263,83.51145,https://www.pakurcafe117.com,+91-9436146289,4.4,9AM-8PM,No,Yes,Open,Yes,Has Website,Very Good (4.0-4.4)
Medininagar Restaurant 118,Restaurant,Medininagar,Civil Lines,"Civil Lines, Medininagar, Jharkhand",24.353966,85.672501,https://www.medininagarrestaurant118.com,+91-9993381017,4.5,9AM-8PM,Yes,Yes,Open,Yes,Has Website,Excellent (4.5-5.0)
Godda Hospital 119,Hospital,Godda,Adityapur,"Adityapur, Godda, Jharkhand",22.185941,86.682098,https://www.goddahospital119.com,+91-9900801837,4.0,7AM-9PM,Limited,Yes,Open,Yes,Has Website,Very Good (4.0-4.4)
Ramgarh Gym 120,Gym,Ramgarh,Upper Bazar,"Upper Bazar, Ramgarh, Jharkhand",22.998126,86.109516,https://www.ramgarhgym120.com,+91-9979339361,4.5,7AM-9PM,Yes,No,Open,Yes,Has Website,Excellent (4.5-5.0)
Chatra Bakery 121,Bakery,Chatra,Civil Lines,"Civil Lines, Chatra, Jharkhand",24.230646,85.822036,https://www.chatrabakery121.com,+91-9290209201,4.9,9AM-8PM,Limited,No,Open,Yes,Has Website,Excellent (4.5-5.0)
Koderma Hospital 122,Hospital,Koderma,Kanke,"Kanke, Koderma, Jharkhand",24.909596,84.492833,https://www.kodermahospital122.com,+91-9773469560,4.0,9AM-8PM,No,No,Open,Yes,Has Website,Very Good (4.0-4.4)
Jamshedpur Hospital 123,Hospital,Jamshedpur,MG Road,"MG Road, Jamshedpur, Jharkhand",23.472011,84.441631,https://www.jamshedpurhospital123.com,+91-9585238820,3.6,7AM-9PM,Limited,Yes,Open,Yes,Has Website,Good (3.5-3.9)
Simdega School 124,School,Simdega,Bistupur,"Bistupur, Simdega, Jharkhand",23.338135,85.417265,https://www.simdegaschool124.com,+91-9950207886,4.6,8AM-10PM,No,No,Open,Yes,Has Website,Excellent (4.5-5.0)
Jamshedpur Supermarket 125,Supermarket,Jamshedpur,Sakchi,"Sakchi, Jamshedpur, Jharkhand",22.260506,86.796507,https://www.jamshedpursupermarket125.com,+91-9468763500,5.0,8AM-10PM,Yes,Yes,Open,Yes,Has Website,Excellent (4.5-5.0)
Sahibganj Fuel Station 126,Fuel Station,Sahibganj,Adityapur,"Adityapur, Sahibganj, Jharkhand",23.518244,83.834985,https://www.sahibganjfuelstation126.com,+91-9500346767,4.9,24 Hours,Limited,Yes,Open,Yes,Has Website,Excellent (4.5-5.0)
Medininagar College 127,College,Medininagar,Station Road,"Station Road, Medininagar, Jharkhand",22.939072,85.431853,https://www.medininagarcollege127.com,+91-9515070154,3.9,8AM-10PM,No,Yes,Open,Yes,Has Website,Good (3.5-3.9)
Deoghar Office 128,Office,Deoghar,MG Road,"MG Road, Deoghar, Jharkhand",22.880695,85.824219,https://www.deogharoffice128.com,+91-9810962214,4.1,7AM-9PM,No,No,Open,Yes,Has Website,Very Good (4.0-4.4)
Deoghar Hardware 129,Hardware,Deoghar,Kanke,"Kanke, Deoghar, Jharkhand",24.058493,86.988434,https://www.deogharhardware129.com,+91-9835958147,4.9,9AM-8PM,Limited,No,Open,Yes,Has Website,Excellent (4.5-5.0)
Dumka Mobile Store 130,Mobile Store,Dumka,Civil Lines,"Civil Lines, Dumka, Jharkhand",24.803508,84.566929,https://www.dumkamobilestore130.com,+91-9922653967,4.2,8AM-10PM,Yes,No,Open,Yes,Has Website,Very Good (4.0-4.4)
Gumla Gym 131,Gym,Gumla,Lower Bazar,"Lower Bazar, Gumla, Jharkhand",24.165932,85.306127,https://www.gumlagym131.com,+91-9810741110,4.0,8AM-10PM,Limited,No,Open,Yes,Has Website,Very Good (4.0-4.4)
Hazaribagh Bakery 132,Bakery,Hazaribagh,Lower Bazar,"Lower Bazar, Hazaribagh, Jharkhand",24.028537,85.698962,https://www.hazaribaghbakery132.com,+91-9277746324,4.6,24 Hours,Limited,Yes,Open,Yes,Has Website,Excellent (4.5-5.0)
Dumka School 133,School,Dumka,Upper Bazar,"Upper Bazar, Dumka, Jharkhand",24.19561,84.995712,https://www.dumkaschool133.com,+91-9673390109,3.9,8AM-10PM,No,No,Open,Yes,Has Website,Good (3.5-3.9)
Godda Furniture 134,Furniture,Godda,Adityapur,"Adityapur, Godda, Jharkhand",23.532379,87.065073,https://www.goddafurniture134.com,+91-9977130288,3.8,24 Hours,Yes,No,Open,Yes,Has Website,Good (3.5-3.9)
Bokaro Clinic 135,Clinic,Bokaro,Kokar,"Kokar, Bokaro, Jharkhand",24.487677,86.604664,https://www.bokaroclinic135.com,+91-9406084084,3.6,9AM-8PM,Limited,Yes,Open,Yes,Has Website,Good (3.5-3.9)
Giridih Hotel 136,Hotel,Giridih,Lower Bazar,"Lower Bazar, Giridih, Jharkhand",23.303384,84.59834,https://www.giridihhotel136.com,+91-9128636900,4.1,24 Hours,Yes,No,Open,Yes,Has Website,Very Good (4.0-4.4)
Giridih Mobile Store 137,Mobile Store,Giridih,Main Road,"Main Road, Giridih, Jharkhand",22.906055,83.596332,https://www.giridihmobilestore137.com,+91-9867407868,4.5,8AM-10PM,Yes,No,Open,Yes,Has Website,Excellent (4.5-5.0)
Latehar Supermarket 138,Supermarket,Latehar,Sakchi,"Sakchi, Latehar, Jharkhand",23.796045,86.82343,https://www.lateharsupermarket138.com,+91-9120405269,3.9,9AM-8PM,Yes,No,Open,Yes,Has Website,Good (3.5-3.9)
Bokaro Furniture 139,Furniture,Bokaro,Main Road,"Main Road, Bokaro, Jharkhand",22.665319,85.755807,https://www.bokarofurniture139.com,+91-9768737754,4.2,7AM-9PM,Limited,Yes,Open,Yes,Has Website,Very Good (4.0-4.4)
Dumka Supermarket 140,Supermarket,Dumka,Bistupur,"Bistupur, Dumka, Jharkhand",21.954693,84.611264,https://www.dumkasupermarket140.com,+91-9712745501,4.1,7AM-9PM,Limited,No,Open,Yes,Has Website,Very Good (4.0-4.4)
Gumla Gym 141,Gym,Gumla,Adityapur,"Adityapur, Gumla, Jharkhand",24.309237,85.23049,https://www.gumlagym141.com,+91-9121833792,4.1,9AM-8PM,No,No,Open,Yes,Has Website,Very Good (4.0-4.4)
Khunti Restaurant 142,Restaurant,Khunti,Upper Bazar,"Upper Bazar, Khunti, Jharkhand",22.152679,84.164504,https://www.khuntirestaurant142.com,+91-9805560474,4.4,24 Hours,Yes,Yes,Open,Yes,Has Website,Very Good (4.0-4.4)
Medininagar Clinic 143,Clinic,Medininagar,Lower Bazar,"Lower Bazar, Medininagar, Jharkhand",23.878387,86.521535,https://www.medininagarclinic143.com,+91-9835172306,4.2,8AM-10PM,Yes,Yes,Open,Yes,Has Website,Very Good (4.0-4.4)
Jamshedpur Fuel Station 144,Fuel Station,Jamshedpur,Bus Stand,"Bus Stand, Jamshedpur, Jharkhand",22.554773,86.364437,https://www.jamshedpurfuelstation144.com,+91-9144996163,4.0,9AM-8PM,Limited,No,Open,Yes,Has Website,Very Good (4.0-4.4)
Koderma Cafe 145,Cafe,Koderma,Market Area,"Market Area, Koderma, Jharkhand",22.808333,86.648554,https://www.kodermacafe145.com,+91-9151329185,4.8,7AM-9PM,No,No,Open,Yes,Has Website,Excellent (4.5-5.0)
Godda Fuel Station 146,Fuel Station,Godda,MG Road,"MG Road, Godda, Jharkhand",24.871171,85.184813,https://www.goddafuelstation146.com,+91-9634211672,4.1,24 Hours,Yes,No,Open,Yes,Has Website,Very Good (4.0-4.4)
Chatra ATM 147,ATM,Chatra,Lower Bazar,"Lower Bazar, Chatra, Jharkhand",22.491369,84.375066,https://www.chatraatm147.com,+91-9210163669,3.6,24 Hours,No,No,Open,Yes,Has Website,Good (3.5-3.9)
Khunti Fuel Station 148,Fuel Station,Khunti,Sakchi,"Sakchi, Khunti, Jharkhand",22.077065,86.680149,https://www.khuntifuelstation148.com,+91-9478557676,4.4,7AM-9PM,Yes,No,Open,Yes,Has Website,Very Good (4.0-4.4)
Hazaribagh Gym 149,Gym,Hazaribagh,Main Road,"Main Road, Hazaribagh, Jharkhand",22.378338,85.630292,https://www.hazaribaghgym149.com,+91-9938927341,4.2,8AM-10PM,Limited,No,Open,Yes,Has Website,Very Good (4.0-4.4)
Lohardaga Bank 150,Bank,Lohardaga,Main Road,"Main Road, Lohardaga, Jharkhand",23.765284,85.916248,https://www.lohardagabank150.com,+91-9498320110,4.1,8AM-10PM,Limited,No,Open,Yes,Has Website,Very Good (4.0-4.4)
Koderma Hardware 151,Hardware,Koderma,Bus Stand,"Bus Stand, Koderma, Jharkhand",22.698835,83.653794,https://www.kodermahardware151.com,+91-9889924866,3.8,7AM-9PM,No,No,Open,Yes,Has Website,Good (3.5-3.9)
Ramgarh Fuel Station 152,Fuel Station,Ramgarh,Harmu,"Harmu, Ramgarh, Jharkhand",22.806731,86.865916,https://www.ramgarhfuelstation152.com,+91-9627422192,3.8,9AM-8PM,Yes,No,Open,Yes,Has Website,Good (3.5-3.9)
Medininagar Office 153,Office,Medininagar,Kanke,"Kanke, Medininagar, Jharkhand",22.992276,83.459756,https://www.medininagaroffice153.com,+91-9682152066,3.9,8AM-10PM,No,Yes,Open,Yes,Has Website,Good (3.5-3.9)
Deoghar Electronics 154,Electronics,Deoghar,Market Area,"Market Area, Deoghar, Jharkhand",24.321119,83.305136,https://www.deogharelectronics154.com,+91-9694875990,4.4,8AM-10PM,Limited,Yes,Open,Yes,Has Website,Very Good (4.0-4.4)
Godda Furniture 155,Furniture,Godda,Kokar,"Kokar, Godda, Jharkhand",24.106609,85.302783,https://www.goddafurniture155.com,+91-9925884151,4.1,8AM-10PM,No,Yes,Open,Yes,Has Website,Very Good (4.0-4.4)
Simdega Fuel Station 156,Fuel Station,Simdega,MG Road,"MG Road, Simdega, Jharkhand",22.335004,86.516215,https://www.simdegafuelstation156.com,+91-9691957561,4.5,9AM-8PM,Limited,Yes,Open,Yes,Has Website,Excellent (4.5-5.0)
Deoghar Gym 157,Gym,Deoghar,Bus Stand,"Bus Stand, Deoghar, Jharkhand",22.443971,84.490643,https://www.deoghargym157.com,+91-9861639583,3.8,7AM-9PM,No,Yes,Open,Yes,Has Website,Good (3.5-3.9)
Chaibasa Clinic 158,Clinic,Chaibasa,Civil Lines,"Civil Lines, Chaibasa, Jharkhand",23.825067,85.657713,https://www.chaibasaclinic158.com,+91-9200317984,4.3,8AM-10PM,Yes,No,Open,Yes,Has Website,Very Good (4.0-4.4)
Ranchi Cafe 159,Cafe,Ranchi,Station Road,"Station Road, Ranchi, Jharkhand",22.086385,85.765815,https://www.ranchicafe159.com,+91-9719303396,3.9,9AM-8PM,Limited,Yes,Open,Yes,Has Website,Good (3.5-3.9)
Gumla College 160,College,Gumla,Bus Stand,"Bus Stand, Gumla, Jharkhand",23.875722,84.408376,https://www.gumlacollege160.com,+91-9362935648,4.7,24 Hours,No,Yes,Open,Yes,Has Website,Excellent (4.5-5.0)
Hazaribagh Cafe 161,Cafe,Hazaribagh,Sakchi,"Sakchi, Hazaribagh, Jharkhand",23.196865,85.057769,https://www.hazaribaghcafe161.com,+91-9465278987,4.4,24 Hours,Limited,No,Open,Yes,Has Website,Very Good (4.0-4.4)
Khunti Supermarket 162,Supermarket,Khunti,Adityapur,"Adityapur, Khunti, Jharkhand",23.634954,84.476464,https://www.khuntisupermarket162.com,+91-9600871106,3.7,8AM-10PM,Yes,Yes,Open,Yes,Has Website,Good (3.5-3.9)
Chatra Bank 163,Bank,Chatra,Bistupur,"Bistupur, Chatra, Jharkhand",22.694811,86.66123,https://www.chatrabank163.com,+91-9271476207,4.7,24 Hours,Yes,Yes,Open,Yes,Has Website,Excellent (4.5-5.0)
Sahibganj Gym 164,Gym,Sahibganj,Sakchi,"Sakchi, Sahibganj, Jharkhand",24.587227,85.189481,https://www.sahibganjgym164.com,+91-9196689473,4.9,8AM-10PM,Yes,No,Open,Yes,Has Website,Excellent (4.5-5.0)
Dumka Cafe 165,Cafe,Dumka,Sakchi,"Sakchi, Dumka, Jharkhand",23.742556,86.571399,https://www.dumkacafe165.com,+91-9822113500,4.2,7AM-9PM,No,Yes,Open,Yes,Has Website,Very Good (4.0-4.4)
Godda Mobile Store 166,Mobile Store,Godda,MG Road,"MG Road, Godda, Jharkhand",22.085727,83.404631,https://www.goddamobilestore166.com,+91-9703246271,3.8,7AM-9PM,No,No,Open,Yes,Has Website,Good (3.5-3.9)
Chatra Jewelry 167,Jewelry,Chatra,Kanke,"Kanke, Chatra, Jharkhand",23.783129,83.714654,https://www.chatrajewelry167.com,+91-9203810954,4.1,24 Hours,Yes,Yes,Open,Yes,Has Website,Very Good (4.0-4.4)
Godda Gym 168,Gym,Godda,Adityapur,"Adityapur, Godda, Jharkhand",22.070765,83.355656,https://www.goddagym168.com,+91-9866213410,4.0,9AM-8PM,Yes,Yes,Open,Yes,Has Website,Very Good (4.0-4.4)
Medininagar School 169,School,Medininagar,Civil Lines,"Civil Lines, Medininagar, Jharkhand",23.128864,85.666002,https://www.medininagarschool169.com,+91-9421300425,4.4,9AM-8PM,Limited,No,Open,Yes,Has Website,Very Good (4.0-4.4)
Khunti Restaurant 170,Restaurant,Khunti,MG Road,"MG Road, Khunti, Jharkhand",23.971419,87.119592,https://www.khuntirestaurant170.com,+91-9726745401,4.0,7AM-9PM,Limited,No,Open,Yes,Has Website,Very Good (4.0-4.4)
Lohardaga College 171,College,Lohardaga,Harmu,"Harmu, Lohardaga, Jharkhand",22.63263,83.405421,https://www.lohardagacollege171.com,+91-9615877957,3.8,9AM-8PM,Yes,Yes,Open,Yes,Has Website,Good (3.5-3.9)
Bokaro Hospital 172,Hospital,Bokaro,Market Area,"Market Area, Bokaro, Jharkhand",22.006812,84.45477,https://www.bokarohospital172.com,+91-9262598077,4.1,9AM-8PM,Limited,Yes,Open,Yes,Has Website,Very Good (4.0-4.4)
Simdega Supermarket 173,Supermarket,Simdega,Market Area,"Market Area, Simdega, Jharkhand",23.63266,87.192491,https://www.simdegasupermarket173.com,+91-9613646933,4.3,9AM-8PM,Limited,No,Open,Yes,Has Website,Very Good (4.0-4.4)
Koderma Mobile Store 174,Mobile Store,Koderma,Upper Bazar,"Upper Bazar, Koderma, Jharkhand",24.02994,85.640306,https://www.kodermamobilestore174.com,+91-9306442077,4.9,24 Hours,Yes,No,Open,Yes,Has Website,Excellent (4.5-5.0)
Latehar Electronics 175,Electronics,Latehar,MG Road,"MG Road, Latehar, Jharkhand",23.38941,85.44195,https://www.lateharelectronics175.com,+91-9954059995,4.6,9AM-8PM,No,No,Open,Yes,Has Website,Excellent (4.5-5.0)
Jamshedpur Furniture 176,Furniture,Jamshedpur,Bus Stand,"Bus Stand, Jamshedpur, Jharkhand",24.815941,83.516118,https://www.jamshedpurfurniture176.com,+91-9574997731,4.5,8AM-10PM,Yes,No,Open,Yes,Has Website,Excellent (4.5-5.0)
Deoghar Jewelry 177,Jewelry,Deoghar,Station Road,"Station Road, Deoghar, Jharkhand",23.797031,85.547322,https://www.deogharjewelry177.com,+91-9360337343,3.6,8AM-10PM,Yes,Yes,Open,Yes,Has Website,Good (3.5-3.9)
Latehar Hardware 178,Hardware,Latehar,Station Road,"Station Road, Latehar, Jharkhand",23.993576,83.749868,https://www.lateharhardware178.com,+91-9690936560,5.0,9AM-8PM,No,Yes,Open,Yes,Has Website,Excellent (4.5-5.0)
Dumka Hardware 179,Hardware,Dumka,Kanke,"Kanke, Dumka, Jharkhand",22.127488,86.2749,https://www.dumkahardware179.com,+91-9800400428,4.4,7AM-9PM,Yes,No,Open,Yes,Has Website,Very Good (4.0-4.4)
Godda Cafe 180,Cafe,Godda,Upper Bazar,"Upper Bazar, Godda, Jharkhand",23.436152,86.946435,https://www.goddacafe180.com,+91-9410812797,4.8,7AM-9PM,No,No,Open,Yes,Has Website,Excellent (4.5-5.0)
Gumla College 181,College,Gumla,Adityapur,"Adityapur, Gumla, Jharkhand",23.431737,86.954242,https://www.gumlacollege181.com,+91-9641394238,4.2,24 Hours,Yes,No,Open,Yes,Has Website,Very Good (4.0-4.4)
Hazaribagh Jewelry 182,Jewelry,Hazaribagh,Main Road,"Main Road, Hazaribagh, Jharkhand",24.159854,86.363071,https://www.hazaribaghjewelry182.com,+91-9709650444,4.5,9AM-8PM,No,No,Open,Yes,Has Website,Excellent (4.5-5.0)
Bokaro Bank 183,Bank,Bokaro,Civil Lines,"Civil Lines, Bokaro, Jharkhand",24.895056,85.109816,https://www.bokarobank183.com,+91-9366338529,3.5,9AM-8PM,No,No,Open,Yes,Has Website,Good (3.5-3.9)
Lohardaga Hospital 184,Hospital,Lohardaga,Main Road,"Main Road, Lohardaga, Jharkhand",22.734659,84.638208,https://www.lohardagahospital184.com,+91-9353727962,3.6,24 Hours,Yes,No,Open,Yes,Has Website,Good (3.5-3.9)
Dumka Gym 185,Gym,Dumka,Kokar,"Kokar, Dumka, Jharkhand",22.302247,86.864522,https://www.dumkagym185.com,+91-9416794215,4.1,8AM-10PM,No,Yes,Open,Yes,Has Website,Very Good (4.0-4.4)
Khunti School 186,School,Khunti,Bistupur,"Bistupur, Khunti, Jharkhand",24.055822,86.851188,https://www.khuntischool186.com,+91-9913198930,4.3,8AM-10PM,Limited,Yes,Open,Yes,Has Website,Very Good (4.0-4.4)
Simdega Fuel Station 187,Fuel Station,Simdega,Kokar,"Kokar, Simdega, Jharkhand",23.035355,86.868979,https://www.simdegafuelstation187.com,+91-9220483278,3.6,8AM-10PM,Limited,Yes,Open,Yes,Has Website,Good (3.5-3.9)
Simdega Hardware 188,Hardware,Simdega,Sakchi,"Sakchi, Simdega, Jharkhand",22.29872,84.021606,https://www.simdegahardware188.com,+91-9726150048,4.2,7AM-9PM,No,Yes,Open,Yes,Has Website,Very Good (4.0-4.4)
Sahibganj ATM 189,ATM,Sahibganj,Harmu,"Harmu, Sahibganj, Jharkhand",22.12321,85.049513,https://www.sahibganjatm189.com,+91-9966418765,4.0,24 Hours,Yes,Yes,Open,Yes,Has Website,Very Good (4.0-4.4)
Jamshedpur Hotel 190,Hotel,Jamshedpur,Bistupur,"Bistupur, Jamshedpur, Jharkhand",22.983587,83.45504,https://www.jamshedpurhotel190.com,+91-9164698991,4.9,7AM-9PM,No,No,Open,Yes,Has Website,Excellent (4.5-5.0)
Koderma Supermarket 191,Supermarket,Koderma,Kokar,"Kokar, Koderma, Jharkhand",23.887642,84.881448,https://www.kodermasupermarket191.com,+91-9510684364,4.2,7AM-9PM,Limited,Yes,Open,Yes,Has Website,Very Good (4.0-4.4)
Bokaro Mobile Store 192,Mobile Store,Bokaro,Civil Lines,"Civil Lines, Bokaro, Jharkhand",24.92854,84.772235,https://www.bokaromobilestore192.com,+91-9236737888,4.6,7AM-9PM,No,No,Open,Yes,Has Website,Excellent (4.5-5.0)
Pakur Clinic 193,Clinic,Pakur,Adityapur,"Adityapur, Pakur, Jharkhand",23.087829,84.118656,https://www.pakurclinic193.com,+91-9594592624,4.0,7AM-9PM,Yes,No,Open,Yes,Has Website,Very Good (4.0-4.4)
Giridih Restaurant 194,Restaurant,Giridih,Market Area,"Market Area, Giridih, Jharkhand",22.151873,85.575777,https://www.giridihrestaurant194.com,+91-9579362443,4.4,8AM-10PM,Limited,Yes,Open,Yes,Has Website,Very Good (4.0-4.4)
Giridih Fuel Station 195,Fuel Station,Giridih,Adityapur,"Adityapur, Giridih, Jharkhand",22.601808,86.654921,https://www.giridihfuelstation195.com,+91-9160606325,3.7,24 Hours,Limited,No,Open,Yes,Has Website,Good (3.5-3.9)
Deoghar Furniture 196,Furniture,Deoghar,Kanke,"Kanke, Deoghar, Jharkhand",23.513753,84.854241,https://www.deogharfurniture196.com,+91-9395444277,3.6,9AM-8PM,Limited,No,Open,Yes,Has Website,Good (3.5-3.9)
Koderma Mobile Store 197,Mobile Store,Koderma,Kanke,"Kanke, Koderma, Jharkhand",23.093464,85.297852,https://www.kodermamobilestore197.com,+91-9847655456,4.1,9AM-8PM,Yes,No,Open,Yes,Has Website,Very Good (4.0-4.4)
Dumka Clothing 198,Clothing,Dumka,Lower Bazar,"Lower Bazar, Dumka, Jharkhand",24.07273,86.423105,https://www.dumkaclothing198.com,+91-9161873231,4.3,8AM-10PM,No,Yes,Open,Yes,Has Website,Very Good (4.0-4.4)
Medininagar Electronics 199,Electronics,Medininagar,Kanke,"Kanke, Medininagar, Jharkhand",22.187211,84.999147,https://www.medininagarelectronics199.com,+91-9498441427,3.6,7AM-9PM,No,No,Open,Yes,Has Website,Good (3.5-3.9)
Chatra School 200,School,Chatra,Main Road,"Main Road, Chatra, Jharkhand",24.570861,83.952653,https://www.chatraschool200.com,+91-9917865301,4.4,8AM-10PM,No,Yes,Open,Yes,Has Website,Very Good (4.0-4.4)
Ranchi Furniture 201,Furniture,Ranchi,Market Area,"Market Area, Ranchi, Jharkhand",24.761479,87.04831,https://www.ranchifurniture201.com,+91-9225967304,4.6,8AM-10PM,Limited,Yes,Open,Yes,Has Website,Excellent (4.5-5.0)
Gumla Clothing 202,Clothing,Gumla,MG Road,"MG Road, Gumla, Jharkhand",24.276542,84.722647,https://www.gumlaclothing202.com,+91-9673002461,4.5,24 Hours,Limited,No,Open,Yes,Has Website,Excellent (4.5-5.0)
Latehar Grocery Store 203,Grocery Store,Latehar,Upper Bazar,"Upper Bazar, Latehar, Jharkhand",24.469194,86.857322,https://www.latehargrocerystore203.com,+91-9498041381,4.0,8AM-10PM,Limited,Yes,Open,Yes,Has Website,Very Good (4.0-4.4)
Gumla Jewelry 204,Jewelry,Gumla,Harmu,"Harmu, Gumla, Jharkhand",23.687429,84.870312,https://www.gumlajewelry204.com,+91-9263650505,3.8,8AM-10PM,No,No,Open,Yes,Has Website,Good (3.5-3.9)
Koderma Salon 205,Salon,Koderma,Kokar,"Kokar, Koderma, Jharkhand",23.421787,83.872935,https://www.kodermasalon205.com,+91-9953598460,4.0,9AM-8PM,Yes,Yes,Open,Yes,Has Website,Very Good (4.0-4.4)
Dhanbad Cafe 206,Cafe,Dhanbad,Lower Bazar,"Lower Bazar, Dhanbad, Jharkhand",23.954647,86.257355,https://www.dhanbadcafe206.com,+91-9542802779,3.7,7AM-9PM,Limited,Yes,Open,Yes,Has Website,Good (3.5-3.9)
Simdega Electronics 207,Electronics,Simdega,Sakchi,"Sakchi, Simdega, Jharkhand",23.069602,85.671341,https://www.simdegaelectronics207.com,+91-9815922437,4.9,9AM-8PM,Yes,Yes,Open,Yes,Has Website,Excellent (4.5-5.0)
Pakur Clinic 208,Clinic,Pakur,Main Road,"Main Road, Pakur, Jharkhand",22.000178,86.088771,https://www.pakurclinic208.com,+91-9675244407,5.0,9AM-8PM,Yes,Yes,Open,Yes,Has Website,Excellent (4.5-5.0)
Deoghar Gym 209,Gym,Deoghar,Market Area,"Market Area, Deoghar, Jharkhand",22.525796,85.305824,https://www.deoghargym209.com,+91-9975329786,4.0,7AM-9PM,No,No,Open,Yes,Has Website,Very Good (4.0-4.4)
Giridih Hospital 210,Hospital,Giridih,Kokar,"Kokar, Giridih, Jharkhand",22.627572,85.936167,https://www.giridihhospital210.com,+91-9186561759,4.5,7AM-9PM,No,No,Open,Yes,Has Website,Excellent (4.5-5.0)
Latehar Clinic 211,Clinic,Latehar,Main Road,"Main Road, Latehar, Jharkhand",23.860244,86.011381,https://www.lateharclinic211.com,+91-9188783547,4.2,24 Hours,Limited,Yes,Open,Yes,Has Website,Very Good (4.0-4.4)
Giridih Cafe 212,Cafe,Giridih,Market Area,"Market Area, Giridih, Jharkhand",24.653819,85.969151,https://www.giridihcafe212.com,+91-9708579840,4.2,24 Hours,Limited,Yes,Open,Yes,Has Website,Very Good (4.0-4.4)
Ranchi Hardware 213,Hardware,Ranchi,Market Area,"Market Area, Ranchi, Jharkhand",23.711108,86.209018,https://www.ranchihardware213.com,+91-9865268035,4.7,8AM-10PM,Limited,Yes,Open,Yes,Has Website,Excellent (4.5-5.0)
Gumla Bank 214,Bank,Gumla,MG Road,"MG Road, Gumla, Jharkhand",23.101539,86.158981,https://www.gumlabank214.com,+91-9948790854,5.0,24 Hours,Yes,Yes,Open,Yes,Has Website,Excellent (4.5-5.0)
Dhanbad Clothing 215,Clothing,Dhanbad,MG Road,"MG Road, Dhanbad, Jharkhand",23.765506,85.655461,https://www.dhanbadclothing215.com,+91-9739529933,4.1,7AM-9PM,Limited,No,Open,Yes,Has Website,Very Good (4.0-4.4)
Giridih Salon 216,Salon,Giridih,MG Road,"MG Road, Giridih, Jharkhand",23.609113,84.701708,https://www.giridihsalon216.com,+91-9299434489,4.5,7AM-9PM,Limited,No,Open,Yes,Has Website,Excellent (4.5-5.0)
Dhanbad Hotel 217,Hotel,Dhanbad,Bus Stand,"Bus Stand, Dhanbad, Jharkhand",22.412663,86.046709,https://www.dhanbadhotel217.com,+91-9780645895,3.7,24 Hours,Yes,Yes,Open,Yes,Has Website,Good (3.5-3.9)
Sahibganj Furniture 218,Furniture,Sahibganj,MG Road,"MG Road, Sahibganj, Jharkhand",24.234039,83.608926,https://www.sahibganjfurniture218.com,+91-9193734690,3.8,9AM-8PM,Yes,Yes,Open,Yes,Has Website,Good (3.5-3.9)
Gumla Mobile Store 219,Mobile Store,Gumla,Station Road,"Station Road, Gumla, Jharkhand",23.740774,86.337755,https://www.gumlamobilestore219.com,+91-9513646070,3.5,7AM-9PM,Limited,Yes,Open,Yes,Has Website,Good (3.5-3.9)
Hazaribagh Gym 220,Gym,Hazaribagh,Kanke,"Kanke, Hazaribagh, Jharkhand",23.092196,83.75536,https://www.hazaribaghgym220.com,+91-9423337234,3.9,8AM-10PM,No,No,Open,Yes,Has Website,Good (3.5-3.9)
Latehar Furniture 221,Furniture,Latehar,Upper Bazar,"Upper Bazar, Latehar, Jharkhand",22.180764,84.206799,https://www.lateharfurniture221.com,+91-9364774064,4.6,8AM-10PM,No,Yes,Open,Yes,Has Website,Excellent (4.5-5.0)
Ranchi Furniture 222,Furniture,Ranchi,Bistupur,"Bistupur, Ranchi, Jharkhand",22.946652,85.680769,https://www.ranchifurniture222.com,+91-9963370520,4.8,9AM-8PM,Limited,Yes,Open,Yes,Has Website,Excellent (4.5-5.0)
Chatra Hardware 223,Hardware,Chatra,Kokar,"Kokar, Chatra, Jharkhand",22.552554,84.456733,https://www.chatrahardware223.com,+91-9527606494,5.0,9AM-8PM,Limited,Yes,Open,Yes,Has Website,Excellent (4.5-5.0)
Chaibasa Bank 224,Bank,Chaibasa,Lower Bazar,"Lower Bazar, Chaibasa, Jharkhand",24.3076,84.660062,https://www.chaibasabank224.com,+91-9705429879,3.8,7AM-9PM,Limited,No,Open,Yes,Has Website,Good (3.5-3.9)
Sahibganj Electronics 225,Electronics,Sahibganj,Upper Bazar,"Upper Bazar, Sahibganj, Jharkhand",22.823994,85.971341,https://www.sahibganjelectronics225.com,+91-9979357576,4.8,9AM-8PM,Yes,No,Open,Yes,Has Website,Excellent (4.5-5.0)
Deoghar Jewelry 226,Jewelry,Deoghar,Kokar,"Kokar, Deoghar, Jharkhand",23.219384,84.707963,https://www.deogharjewelry226.com,+91-9582181718,5.0,9AM-8PM,Limited,No,Open,Yes,Has Website,Excellent (4.5-5.0)
Khunti Cafe 227,Cafe,Khunti,Kokar,"Kokar, Khunti, Jharkhand",24.636505,85.347624,https://www.khunticafe227.com,+91-9785240944,4.9,24 Hours,Yes,Yes,Open,Yes,Has Website,Excellent (4.5-5.0)
Koderma College 228,College,Koderma,Bistupur,"Bistupur, Koderma, Jharkhand",24.850433,84.526387,https://www.kodermacollege228.com,+91-9954946593,4.1,24 Hours,Yes,Yes,Open,Yes,Has Website,Very Good (4.0-4.4)
Godda Mobile Store 229,Mobile Store,Godda,Sakchi,"Sakchi, Godda, Jharkhand",24.267027,85.55436,https://www.goddamobilestore229.com,+91-9637371044,3.7,7AM-9PM,No,No,Open,Yes,Has Website,Good (3.5-3.9)
Deoghar Grocery Store 230,Grocery Store,Deoghar,MG Road,"MG Road, Deoghar, Jharkhand",22.885671,85.021331,https://www.deoghargrocerystore230.com,+91-9322122096,4.3,7AM-9PM,No,No,Open,Yes,Has Website,Very Good (4.0-4.4)
Dumka Hotel 231,Hotel,Dumka,Main Road,"Main Road, Dumka, Jharkhand",24.380558,83.660341,https://www.dumkahotel231.com,+91-9468377143,4.5,8AM-10PM,Limited,Yes,Open,Yes,Has Website,Excellent (4.5-5.0)
Medininagar Bakery 232,Bakery,Medininagar,Adityapur,"Adityapur, Medininagar, Jharkhand",23.229108,85.048217,https://www.medininagarbakery232.com,+91-9956583753,4.1,9AM-8PM,No,Yes,Open,Yes,Has Website,Very Good (4.0-4.4)
Ramgarh School 233,School,Ramgarh,Sakchi,"Sakchi, Ramgarh, Jharkhand",23.726609,84.755343,https://www.ramgarhschool233.com,+91-9856704108,3.8,7AM-9PM,Limited,Yes,Open,Yes,Has Website,Good (3.5-3.9)
Khunti Bakery 234,Bakery,Khunti,MG Road,"MG Road, Khunti, Jharkhand",22.541223,83.65582,https://www.khuntibakery234.com,+91-9820160169,4.8,24 Hours,Limited,No,Open,Yes,Has Website,Excellent (4.5-5.0)
Lohardaga Bank 235,Bank,Lohardaga,Station Road,"Station Road, Lohardaga, Jharkhand",22.993774,86.582071,https://www.lohardagabank235.com,+91-9762888128,3.8,24 Hours,Limited,Yes,Open,Yes,Has Website,Good (3.5-3.9)
Medininagar Supermarket 236,Supermarket,Medininagar,Station Road,"Station Road, Medininagar, Jharkhand",22.665718,83.667796,https://www.medininagarsupermarket236.com,+91-9500834337,4.5,9AM-8PM,Limited,Yes,Open,Yes,Has Website,Excellent (4.5-5.0)
Pakur Bank 237,Bank,Pakur,Civil Lines,"Civil Lines, Pakur, Jharkhand",23.410011,85.349517,https://www.pakurbank237.com,+91-9792842747,4.9,8AM-10PM,No,No,Open,Yes,Has Website,Excellent (4.5-5.0)
Medininagar Bakery 238,Bakery,Medininagar,Lower Bazar,"Lower Bazar, Medininagar, Jharkhand",23.303003,83.414445,https://www.medininagarbakery238.com,+91-9485515372,4.9,8AM-10PM,No,No,Open,Yes,Has Website,Excellent (4.5-5.0)
Latehar Office 239,Office,Latehar,Bistupur,"Bistupur, Latehar, Jharkhand",24.080427,84.975407,https://www.lateharoffice239.com,+91-9279587066,3.6,24 Hours,Yes,No,Open,Yes,Has Website,Good (3.5-3.9)
Dumka Clinic 240,Clinic,Dumka,Civil Lines,"Civil Lines, Dumka, Jharkhand",24.292221,85.462602,https://www.dumkaclinic240.com,+91-9929516706,4.6,7AM-9PM,Limited,Yes,Open,Yes,Has Website,Excellent (4.5-5.0)
Khunti Clinic 241,Clinic,Khunti,Adityapur,"Adityapur, Khunti, Jharkhand",24.417833,83.366442,https://www.khunticlinic241.com,+91-9871999153,4.2,7AM-9PM,Limited,Yes,Open,Yes,Has Website,Very Good (4.0-4.4)
Sahibganj Cafe 242,Cafe,Sahibganj,Bus Stand,"Bus Stand, Sahibganj, Jharkhand",22.995731,86.466914,https://www.sahibganjcafe242.com,+91-9571447714,4.8,8AM-10PM,Limited,No,Open,Yes,Has Website,Excellent (4.5-5.0)
Koderma School 243,School,Koderma,Bistupur,"Bistupur, Koderma, Jharkhand",22.447945,83.75694,https://www.kodermaschool243.com,+91-9321856166,4.7,24 Hours,Limited,No,Open,Yes,Has Website,Excellent (4.5-5.0)
Hazaribagh Clinic 244,Clinic,Hazaribagh,MG Road,"MG Road, Hazaribagh, Jharkhand",24.887,84.370539,https://www.hazaribaghclinic244.com,+91-9714970148,3.9,7AM-9PM,Yes,No,Open,Yes,Has Website,Good (3.5-3.9)
Koderma Jewelry 245,Jewelry,Koderma,Civil Lines,"Civil Lines, Koderma, Jharkhand",24.05428,83.730763,https://www.kodermajewelry245.com,+91-9257027702,4.6,9AM-8PM,No,Yes,Open,Yes,Has Website,Excellent (4.5-5.0)
Chaibasa College 246,College,Chaibasa,Kanke,"Kanke, Chaibasa, Jharkhand",23.192675,85.007967,https://www.chaibasacollege246.com,+91-9780352629,4.7,9AM-8PM,Limited,No,Open,Yes,Has Website,Excellent (4.5-5.0)
Sahibganj Mobile Store 247,Mobile Store,Sahibganj,Sakchi,"Sakchi, Sahibganj, Jharkhand",22.931868,83.209892,https://www.sahibganjmobilestore247.com,+91-9931221434,4.8,24 Hours,Yes,No,Open,Yes,Has Website,Excellent (4.5-5.0)
Ramgarh ATM 248,ATM,Ramgarh,Sakchi,"Sakchi, Ramgarh, Jharkhand",22.755611,86.513374,https://www.ramgarhatm248.com,+91-9462661837,4.3,9AM-8PM,No,Yes,Open,Yes,Has Website,Very Good (4.0-4.4)
Koderma Grocery Store 249,Grocery Store,Koderma,Upper Bazar,"Upper Bazar, Koderma, Jharkhand",24.460107,83.265125,https://www.kodermagrocerystore249.com,+91-9269633510,4.2,8AM-10PM,Limited,Yes,Open,Yes,Has Website,Very Good (4.0-4.4)
Hazaribagh Furniture 250,Furniture,Hazaribagh,Lower Bazar,"Lower Bazar, Hazaribagh, Jharkhand",24.748177,84.296078,https://www.hazaribaghfurniture250.com,+91-9802858478,4.0,8AM-10PM,Yes,No,Open,Yes,Has Website,Very Good (4.0-4.4)
Giridih Furniture 251,Furniture,Giridih,Bistupur,"Bistupur, Giridih, Jharkhand",23.916456,86.014792,https://www.giridihfurniture251.com,+91-9101166414,3.8,8AM-10PM,Limited,No,Open,Yes,Has Website,Good (3.5-3.9)
Medininagar Restaurant 252,Restaurant,Medininagar,Lower Bazar,"Lower Bazar, Medininagar, Jharkhand",22.311781,86.641361,https://www.medininagarrestaurant252.com,+91-9845210115,3.7,9AM-8PM,Yes,Yes,Open,Yes,Has Website,Good (3.5-3.9)
Khunti Hardware 253,Hardware,Khunti,Bus Stand,"Bus Stand, Khunti, Jharkhand",22.361388,86.293842,https://www.khuntihardware253.com,+91-9908697030,4.8,8AM-10PM,Yes,Yes,Open,Yes,Has Website,Excellent (4.5-5.0)
Hazaribagh College 254,College,Hazaribagh,Sakchi,"Sakchi, Hazaribagh, Jharkhand",23.003563,84.052222,https://www.hazaribaghcollege254.com,+91-9903447550,3.7,9AM-8PM,Yes,Yes,Open,Yes,Has Website,Good (3.5-3.9)
Bokaro Supermarket 255,Supermarket,Bokaro,Harmu,"Harmu, Bokaro, Jharkhand",24.140027,84.606143,https://www.bokarosupermarket255.com,+91-9561052655,4.0,24 Hours,Limited,Yes,Open,Yes,Has Website,Very Good (4.0-4.4)
Chatra Clinic 256,Clinic,Chatra,Harmu,"Harmu, Chatra, Jharkhand",24.113539,84.339683,https://www.chatraclinic256.com,+91-9841393046,3.5,24 Hours,Yes,Yes,Open,Yes,Has Website,Good (3.5-3.9)
Dumka Bank 257,Bank,Dumka,Kanke,"Kanke, Dumka, Jharkhand",22.113707,86.79165,https://www.dumkabank257.com,+91-9356990522,4.2,9AM-8PM,Limited,Yes,Open,Yes,Has Website,Very Good (4.0-4.4)
Khunti Restaurant 258,Restaurant,Khunti,MG Road,"MG Road, Khunti, Jharkhand",22.345949,86.643256,https://www.khuntirestaurant258.com,+91-9710293796,4.1,8AM-10PM,No,Yes,Open,Yes,Has Website,Very Good (4.0-4.4)
Dhanbad Hospital 259,Hospital,Dhanbad,Main Road,"Main Road, Dhanbad, Jharkhand",22.736556,83.359307,https://www.dhanbadhospital259.com,+91-9164927936,4.9,24 Hours,Limited,No,Open,Yes,Has Website,Excellent (4.5-5.0)
Dhanbad Bank 260,Bank,Dhanbad,Kanke,"Kanke, Dhanbad, Jharkhand",23.559694,85.664188,https://www.dhanbadbank260.com,+91-9397928718,3.6,8AM-10PM,Yes,No,Open,Yes,Has Website,Good (3.5-3.9)
Koderma Hospital 261,Hospital,Koderma,Upper Bazar,"Upper Bazar, Koderma, Jharkhand",24.453579,85.924223,https://www.kodermahospital261.com,+91-9170990535,4.0,7AM-9PM,Yes,Yes,Open,Yes,Has Website,Very Good (4.0-4.4)
Sahibganj Grocery Store 262,Grocery Store,Sahibganj,Harmu,"Harmu, Sahibganj, Jharkhand",23.776497,84.43716,https://www.sahibganjgrocerystore262.com,+91-9896387342,4.5,7AM-9PM,Limited,Yes,Open,Yes,Has Website,Excellent (4.5-5.0)
Hazaribagh Restaurant 263,Restaurant,Hazaribagh,Sakchi,"Sakchi, Hazaribagh, Jharkhand",24.809049,85.292021,https://www.hazaribaghrestaurant263.com,+91-9940725996,4.7,24 Hours,Yes,No,Open,Yes,Has Website,Excellent (4.5-5.0)
Ranchi Grocery Store 264,Grocery Store,Ranchi,MG Road,"MG Road, Ranchi, Jharkhand",24.371324,84.287922,https://www.ranchigrocerystore264.com,+91-9168582026,3.9,7AM-9PM,No,No,Open,Yes,Has Website,Good (3.5-3.9)
Jamshedpur Mobile Store 265,Mobile Store,Jamshedpur,Sakchi,"Sakchi, Jamshedpur, Jharkhand",24.528079,83.867526,https://www.jamshedpurmobilestore265.com,+91-9268910304,3.9,7AM-9PM,Yes,Yes,Open,Yes,Has Website,Good (3.5-3.9)
Giridih Restaurant 266,Restaurant,Giridih,Main Road,"Main Road, Giridih, Jharkhand",23.365294,84.731918,https://www.giridihrestaurant266.com,+91-9261152186,3.8,9AM-8PM,Yes,No,Open,Yes,Has Website,Good (3.5-3.9)
Medininagar ATM 267,ATM,Medininagar,Bus Stand,"Bus Stand, Medininagar, Jharkhand",24.427991,85.486144,https://www.medininagaratm267.com,+91-9228205773,4.3,8AM-10PM,Limited,Yes,Open,Yes,Has Website,Very Good (4.0-4.4)
Sahibganj Hotel 268,Hotel,Sahibganj,Lower Bazar,"Lower Bazar, Sahibganj, Jharkhand",22.796921,86.579386,https://www.sahibganjhotel268.com,+91-9451436694,3.6,24 Hours,Yes,No,Open,Yes,Has Website,Good (3.5-3.9)
Chatra Furniture 269,Furniture,Chatra,Market Area,"Market Area, Chatra, Jharkhand",23.34178,85.566764,https://www.chatrafurniture269.com,+91-9629741991,5.0,8AM-10PM,Yes,Yes,Open,Yes,Has Website,Excellent (4.5-5.0)
Giridih Restaurant 270,Restaurant,Giridih,Adityapur,"Adityapur, Giridih, Jharkhand",22.989271,86.558296,https://www.giridihrestaurant270.com,+91-9110302352,4.9,9AM-8PM,Limited,No,Open,Yes,Has Website,Excellent (4.5-5.0)
Simdega Electronics 271,Electronics,Simdega,Market Area,"Market Area, Simdega, Jharkhand",23.209448,87.04474,https://www.simdegaelectronics271.com,+91-9252872361,4.6,8AM-10PM,Limited,No,Open,Yes,Has Website,Excellent (4.5-5.0)
Sahibganj Mobile Store 272,Mobile Store,Sahibganj,Kokar,"Kokar, Sahibganj, Jharkhand",22.204707,83.582308,https://www.sahibganjmobilestore272.com,+91-9243359401,4.5,7AM-9PM,No,Yes,Open,Yes,Has Website,Excellent (4.5-5.0)
Chaibasa Furniture 273,Furniture,Chaibasa,Lower Bazar,"Lower Bazar, Chaibasa, Jharkhand",22.895027,86.403267,https://www.chaibasafurniture273.com,+91-9852398388,4.7,9AM-8PM,No,Yes,Open,Yes,Has Website,Excellent (4.5-5.0)
Deoghar Electronics 274,Electronics,Deoghar,Upper Bazar,"Upper Bazar, Deoghar, Jharkhand",24.26044,83.635891,https://www.deogharelectronics274.com,+91-9213449146,3.7,9AM-8PM,Yes,No,Open,Yes,Has Website,Good (3.5-3.9)
Dumka Fuel Station 275,Fuel Station,Dumka,Sakchi,"Sakchi, Dumka, Jharkhand",22.745024,83.679654,https://www.dumkafuelstation275.com,+91-9269238221,4.7,7AM-9PM,Yes,No,Open,Yes,Has Website,Excellent (4.5-5.0)
Giridih Hotel 276,Hotel,Giridih,MG Road,"MG Road, Giridih, Jharkhand",23.138733,83.395802,https://www.giridihhotel276.com,+91-9420877774,3.9,9AM-8PM,No,Yes,Open,Yes,Has Website,Good (3.5-3.9)
Bokaro Fuel Station 277,Fuel Station,Bokaro,Upper Bazar,"Upper Bazar, Bokaro, Jharkhand",24.331429,83.685813,https://www.bokarofuelstation277.com,+91-9166216779,4.7,8AM-10PM,No,No,Open,Yes,Has Website,Excellent (4.5-5.0)
Koderma College 278,College,Koderma,Station Road,"Station Road, Koderma, Jharkhand",23.696971,84.235283,https://www.kodermacollege278.com,+91-9972680546,3.6,9AM-8PM,Yes,Yes,Open,Yes,Has Website,Good (3.5-3.9)
Jamshedpur Grocery Store 279,Grocery Store,Jamshedpur,Sakchi,"Sakchi, Jamshedpur, Jharkhand",22.101913,86.896527,https://www.jamshedpurgrocerystore279.com,+91-9565098113,4.7,7AM-9PM,No,No,Open,Yes,Has Website,Excellent (4.5-5.0)
Ramgarh Mobile Store 280,Mobile Store,Ramgarh,Civil Lines,"Civil Lines, Ramgarh, Jharkhand",22.774945,84.984046,https://www.ramgarhmobilestore280.com,+91-9259591761,3.6,8AM-10PM,Limited,No,Open,Yes,Has Website,Good (3.5-3.9)
Gumla ATM 281,ATM,Gumla,Sakchi,"Sakchi, Gumla, Jharkhand",22.132937,84.319104,https://www.gumlaatm281.com,+91-9247356051,4.1,8AM-10PM,Limited,Yes,Open,Yes,Has Website,Very Good (4.0-4.4)
Latehar Mobile Store 282,Mobile Store,Latehar,Adityapur,"Adityapur, Latehar, Jharkhand",24.294305,84.576136,https://www.lateharmobilestore282.com,+91-9707363258,4.3,8AM-10PM,Yes,No,Open,Yes,Has Website,Very Good (4.0-4.4)
Ranchi Clothing 283,Clothing,Ranchi,Upper Bazar,"Upper Bazar, Ranchi, Jharkhand",24.285615,83.434365,https://www.ranchiclothing283.com,+91-9606467254,4.3,8AM-10PM,Yes,Yes,Open,Yes,Has Website,Very Good (4.0-4.4)
Giridih Office 284,Office,Giridih,Bus Stand,"Bus Stand, Giridih, Jharkhand",23.551069,86.364949,https://www.giridihoffice284.com,+91-9891412300,3.6,9AM-8PM,No,Yes,Open,Yes,Has Website,Good (3.5-3.9)
Lohardaga Clothing 285,Clothing,Lohardaga,MG Road,"MG Road, Lohardaga, Jharkhand",24.368631,85.990506,https://www.lohardagaclothing285.com,+91-9735185398,3.5,8AM-10PM,Limited,Yes,Open,Yes,Has Website,Good (3.5-3.9)
Dumka Clinic 286,Clinic,Dumka,Civil Lines,"Civil Lines, Dumka, Jharkhand",23.421309,83.56103,https://www.dumkaclinic286.com,+91-9349777425,4.4,9AM-8PM,Yes,No,Open,Yes,Has Website,Very Good (4.0-4.4)
Deoghar Electronics 287,Electronics,Deoghar,MG Road,"MG Road, Deoghar, Jharkhand",24.100813,86.875123,https://www.deogharelectronics287.com,+91-9447450846,3.6,8AM-10PM,Yes,No,Open,Yes,Has Website,Good (3.5-3.9)
Godda Mobile Store 288,Mobile Store,Godda,Harmu,"Harmu, Godda, Jharkhand",22.253097,84.407061,https://www.goddamobilestore288.com,+91-9246513857,5.0,9AM-8PM,Limited,No,Open,Yes,Has Website,Excellent (4.5-5.0)
Chatra Clinic 289,Clinic,Chatra,Upper Bazar,"Upper Bazar, Chatra, Jharkhand",23.020477,85.862127,https://www.chatraclinic289.com,+91-9974513582,3.8,24 Hours,Yes,Yes,Open,Yes,Has Website,Good (3.5-3.9)
Lohardaga Restaurant 290,Restaurant,Lohardaga,Bistupur,"Bistupur, Lohardaga, Jharkhand",24.502271,86.283322,https://www.lohardagarestaurant290.com,+91-9709329975,3.5,8AM-10PM,Limited,Yes,Open,Yes,Has Website,Good (3.5-3.9)
Medininagar Supermarket 291,Supermarket,Medininagar,Kokar,"Kokar, Medininagar, Jharkhand",22.18342,84.58724,https://www.medininagarsupermarket291.com,+91-9443080569,3.8,24 Hours,No,Yes,Open,Yes,Has Website,Good (3.5-3.9)
Giridih Electronics 292,Electronics,Giridih,Kokar,"Kokar, Giridih, Jharkhand",22.153384,84.226632,https://www.giridihelectronics292.com,+91-9216001265,4.6,9AM-8PM,Limited,No,Open,Yes,Has Website,Excellent (4.5-5.0)
Latehar ATM 293,ATM,Latehar,Bistupur,"Bistupur, Latehar, Jharkhand",23.003694,84.70139,https://www.lateharatm293.com,+91-9989924715,4.2,8AM-10PM,Yes,No,Open,Yes,Has Website,Very Good (4.0-4.4)
Dumka Cafe 294,Cafe,Dumka,Main Road,"Main Road, Dumka, Jharkhand",22.906151,87.006649,https://www.dumkacafe294.com,+91-9179672074,4.0,7AM-9PM,Limited,Yes,Open,Yes,Has Website,Very Good (4.0-4.4)
Chatra School 295,School,Chatra,Sakchi,"Sakchi, Chatra, Jharkhand",24.063514,84.925293,https://www.chatraschool295.com,+91-9801835431,3.7,7AM-9PM,Yes,No,Open,Yes,Has Website,Good (3.5-3.9)
Pakur Electronics 296,Electronics,Pakur,Kokar,"Kokar, Pakur, Jharkhand",23.612337,86.902294,https://www.pakurelectronics296.com,+91-9679955265,3.9,8AM-10PM,Yes,Yes,Open,Yes,Has Website,Good (3.5-3.9)
Gumla Hospital 297,Hospital,Gumla,Lower Bazar,"Lower Bazar, Gumla, Jharkhand",23.422845,83.418019,https://www.gumlahospital297.com,+91-9104096941,4.1,9AM-8PM,Yes,Yes,Open,Yes,Has Website,Very Good (4.0-4.4)
Hazaribagh Electronics 298,Electronics,Hazaribagh,Kanke,"Kanke, Hazaribagh, Jharkhand",22.825434,83.527744,https://www.hazaribaghelectronics298.com,+91-9224026766,4.0,9AM-8PM,Limited,No,Open,Yes,Has Website,Very Good (4.0-4.4)
Gumla College 299,College,Gumla,Bistupur,"Bistupur, Gumla, Jharkhand",22.504644,86.741971,https://www.gumlacollege299.com,+91-9496642020,3.8,9AM-8PM,No,No,Open,Yes,Has Website,Good (3.5-3.9)
Lohardaga Jewelry 300,Jewelry,Lohardaga,Main Road,"Main Road, Lohardaga, Jharkhand",22.403392,85.985884,https://www.lohardagajewelry300.com,+91-9203833652,3.6,9AM-8PM,Limited,Yes,Open,Yes,Has Website,Good (3.5-3.9)
Godda Cafe 301,Cafe,Godda,Lower Bazar,"Lower Bazar, Godda, Jharkhand",23.517747,87.062511,https://www.goddacafe301.com,+91-9837733572,4.8,8AM-10PM,No,No,Open,Yes,Has Website,Excellent (4.5-5.0)
Jamshedpur Bank 302,Bank,Jamshedpur,Adityapur,"Adityapur, Jamshedpur, Jharkhand",23.66366,85.26727,https://www.jamshedpurbank302.com,+91-9713627778,4.5,7AM-9PM,No,Yes,Open,Yes,Has Website,Excellent (4.5-5.0)
Ramgarh Electronics 303,Electronics,Ramgarh,Civil Lines,"Civil Lines, Ramgarh, Jharkhand",22.078028,83.513474,https://www.ramgarhelectronics303.com,+91-9833500385,4.2,8AM-10PM,Limited,No,Open,Yes,Has Website,Very Good (4.0-4.4)
Dhanbad Hotel 304,Hotel,Dhanbad,Bistupur,"Bistupur, Dhanbad, Jharkhand",23.619093,85.408217,https://www.dhanbadhotel304.com,+91-9396568375,4.3,9AM-8PM,Yes,No,Open,Yes,Has Website,Very Good (4.0-4.4)
Lohardaga Supermarket 305,Supermarket,Lohardaga,Harmu,"Harmu, Lohardaga, Jharkhand",23.698031,87.059327,https://www.lohardagasupermarket305.com,+91-9207593219,4.9,24 Hours,Limited,No,Open,Yes,Has Website,Excellent (4.5-5.0)
Godda Jewelry 306,Jewelry,Godda,Kanke,"Kanke, Godda, Jharkhand",23.406754,85.635849,https://www.goddajewelry306.com,+91-9140228456,3.8,9AM-8PM,Yes,No,Open,Yes,Has Website,Good (3.5-3.9)
Jamshedpur Clothing 307,Clothing,Jamshedpur,Kokar,"Kokar, Jamshedpur, Jharkhand",23.375655,84.274337,https://www.jamshedpurclothing307.com,+91-9499905152,3.5,24 Hours,No,No,Open,Yes,Has Website,Good (3.5-3.9)
Bokaro Office 308,Office,Bokaro,Lower Bazar,"Lower Bazar, Bokaro, Jharkhand",22.633872,84.401922,https://www.bokarooffice308.com,+91-9898567178,4.2,24 Hours,Limited,No,Open,Yes,Has Website,Very Good (4.0-4.4)
Dhanbad College 309,College,Dhanbad,Market Area,"Market Area, Dhanbad, Jharkhand",23.27515,86.853731,https://www.dhanbadcollege309.com,+91-9537195843,4.6,24 Hours,Yes,Yes,Open,Yes,Has Website,Excellent (4.5-5.0)
Simdega Furniture 310,Furniture,Simdega,Bistupur,"Bistupur, Simdega, Jharkhand",22.356949,86.605181,https://www.simdegafurniture310.com,+91-9710607239,3.5,7AM-9PM,Yes,Yes,Open,Yes,Has Website,Good (3.5-3.9)
Khunti Cafe 311,Cafe,Khunti,Kokar,"Kokar, Khunti, Jharkhand",22.547329,84.673408,https://www.khunticafe311.com,+91-9598450776,4.3,7AM-9PM,Yes,No,Open,Yes,Has Website,Very Good (4.0-4.4)
Sahibganj School 312,School,Sahibganj,Civil Lines,"Civil Lines, Sahibganj, Jharkhand",24.831561,85.098329,https://www.sahibganjschool312.com,+91-9691990078,4.0,7AM-9PM,No,Yes,Open,Yes,Has Website,Very Good (4.0-4.4)
Hazaribagh Cafe 313,Cafe,Hazaribagh,Lower Bazar,"Lower Bazar, Hazaribagh, Jharkhand",23.666774,87.05967,https://www.hazaribaghcafe313.com,+91-9337673911,4.5,24 Hours,Limited,No,Open,Yes,Has Website,Excellent (4.5-5.0)
Ranchi Restaurant 314,Restaurant,Ranchi,Sakchi,"Sakchi, Ranchi, Jharkhand",24.684546,85.789486,https://www.ranchirestaurant314.com,+91-9745471251,4.7,24 Hours,Limited,No,Open,Yes,Has Website,Excellent (4.5-5.0)
Khunti Bank 315,Bank,Khunti,Sakchi,"Sakchi, Khunti, Jharkhand",22.705996,85.066792,https://www.khuntibank315.com,+91-9827133833,4.3,7AM-9PM,Yes,No,Open,Yes,Has Website,Very Good (4.0-4.4)
Chatra College 316,College,Chatra,Harmu,"Harmu, Chatra, Jharkhand",22.798031,85.937653,https://www.chatracollege316.com,+91-9617262695,3.6,24 Hours,No,No,Open,Yes,Has Website,Good (3.5-3.9)
Dumka College 317,College,Dumka,Market Area,"Market Area, Dumka, Jharkhand",22.399788,86.261898,https://www.dumkacollege317.com,+91-9160961339,4.7,9AM-8PM,Limited,No,Open,Yes,Has Website,Excellent (4.5-5.0)
Ranchi Supermarket 318,Supermarket,Ranchi,Kanke,"Kanke, Ranchi, Jharkhand",23.442118,84.382419,https://www.ranchisupermarket318.com,+91-9549431487,4.1,8AM-10PM,No,Yes,Open,Yes,Has Website,Very Good (4.0-4.4)
Koderma Clinic 319,Clinic,Koderma,Upper Bazar,"Upper Bazar, Koderma, Jharkhand",23.377206,86.962672,https://www.kodermaclinic319.com,+91-9484933362,4.3,8AM-10PM,No,Yes,Open,Yes,Has Website,Very Good (4.0-4.4)
Chaibasa Supermarket 320,Supermarket,Chaibasa,Kokar,"Kokar, Chaibasa, Jharkhand",24.375032,86.251673,https://www.chaibasasupermarket320.com,+91-9296568144,4.9,7AM-9PM,Yes,No,Open,Yes,Has Website,Excellent (4.5-5.0)
Pakur Furniture 321,Furniture,Pakur,Upper Bazar,"Upper Bazar, Pakur, Jharkhand",24.610531,84.68673,https://www.pakurfurniture321.com,+91-9728751749,3.9,7AM-9PM,Limited,Yes,Open,Yes,Has Website,Good (3.5-3.9)
Simdega Electronics 322,Electronics,Simdega,Station Road,"Station Road, Simdega, Jharkhand",24.552493,84.726677,https://www.simdegaelectronics322.com,+91-9420357050,4.1,8AM-10PM,No,No,Open,Yes,Has Website,Very Good (4.0-4.4)
Deoghar Fuel Station 323,Fuel Station,Deoghar,MG Road,"MG Road, Deoghar, Jharkhand",24.537182,83.921427,https://www.deogharfuelstation323.com,+91-9186770648,4.2,24 Hours,Limited,Yes,Open,Yes,Has Website,Very Good (4.0-4.4)
Chaibasa Fuel Station 324,Fuel Station,Chaibasa,Market Area,"Market Area, Chaibasa, Jharkhand",24.23358,83.874423,https://www.chaibasafuelstation324.com,+91-9920858166,3.7,8AM-10PM,Limited,No,Open,Yes,Has Website,Good (3.5-3.9)
Godda ATM 325,ATM,Godda,Bistupur,"Bistupur, Godda, Jharkhand",24.845984,84.733266,https://www.goddaatm325.com,+91-9140507249,4.3,7AM-9PM,No,Yes,Open,Yes,Has Website,Very Good (4.0-4.4)
Ranchi Office 326,Office,Ranchi,Kanke,"Kanke, Ranchi, Jharkhand",24.15081,84.105063,https://www.ranchioffice326.com,+91-9469742752,4.0,24 Hours,Yes,Yes,Open,Yes,Has Website,Very Good (4.0-4.4)
Dumka Furniture 327,Furniture,Dumka,Sakchi,"Sakchi, Dumka, Jharkhand",24.133496,85.58548,https://www.dumkafurniture327.com,+91-9462747729,4.2,24 Hours,No,No,Open,Yes,Has Website,Very Good (4.0-4.4)
Godda Bakery 328,Bakery,Godda,Main Road,"Main Road, Godda, Jharkhand",22.635255,86.108675,https://www.goddabakery328.com,+91-9240881133,3.8,8AM-10PM,Yes,No,Open,Yes,Has Website,Good (3.5-3.9)
Jamshedpur College 329,College,Jamshedpur,Bistupur,"Bistupur, Jamshedpur, Jharkhand",24.579632,84.223157,https://www.jamshedpurcollege329.com,+91-9674165650,4.4,7AM-9PM,Limited,Yes,Open,Yes,Has Website,Very Good (4.0-4.4)
Pakur Grocery Store 330,Grocery Store,Pakur,Sakchi,"Sakchi, Pakur, Jharkhand",23.090761,85.38913,https://www.pakurgrocerystore330.com,+91-9609379184,4.6,7AM-9PM,No,No,Open,Yes,Has Website,Excellent (4.5-5.0)
Simdega Grocery Store 331,Grocery Store,Simdega,Bus Stand,"Bus Stand, Simdega, Jharkhand",23.818393,86.002905,https://www.simdegagrocerystore331.com,+91-9549710722,4.7,7AM-9PM,No,Yes,Open,Yes,Has Website,Excellent (4.5-5.0)
Ramgarh Salon 332,Salon,Ramgarh,Harmu,"Harmu, Ramgarh, Jharkhand",22.549248,84.251976,https://www.ramgarhsalon332.com,+91-9661723850,5.0,9AM-8PM,No,Yes,Open,Yes,Has Website,Excellent (4.5-5.0)
Latehar Clinic 333,Clinic,Latehar,Market Area,"Market Area, Latehar, Jharkhand",24.014612,85.122656,https://www.lateharclinic333.com,+91-9351798116,3.5,7AM-9PM,Limited,No,Open,Yes,Has Website,Good (3.5-3.9)
Simdega Hotel 334,Hotel,Simdega,Station Road,"Station Road, Simdega, Jharkhand",24.120691,83.605162,https://www.simdegahotel334.com,+91-9374762050,4.5,24 Hours,No,Yes,Open,Yes,Has Website,Excellent (4.5-5.0)
Jamshedpur Bakery 335,Bakery,Jamshedpur,Lower Bazar,"Lower Bazar, Jamshedpur, Jharkhand",22.821702,86.406384,https://www.jamshedpurbakery335.com,+91-9435766697,4.1,7AM-9PM,Yes,Yes,Open,Yes,Has Website,Very Good (4.0-4.4)
Hazaribagh College 336,College,Hazaribagh,MG Road,"MG Road, Hazaribagh, Jharkhand",23.022582,84.950858,https://www.hazaribaghcollege336.com,+91-9767660223,3.9,24 Hours,No,Yes,Open,Yes,Has Website,Good (3.5-3.9)
Godda Bank 337,Bank,Godda,Sakchi,"Sakchi, Godda, Jharkhand",22.765499,84.742862,https://www.goddabank337.com,+91-9613511668,4.7,7AM-9PM,Yes,Yes,Open,Yes,Has Website,Excellent (4.5-5.0)
Pakur Grocery Store 338,Grocery Store,Pakur,Harmu,"Harmu, Pakur, Jharkhand",23.398025,85.475774,https://www.pakurgrocerystore338.com,+91-9570473733,3.8,7AM-9PM,Limited,Yes,Open,Yes,Has Website,Good (3.5-3.9)
Bokaro Salon 339,Salon,Bokaro,Bistupur,"Bistupur, Bokaro, Jharkhand",23.272064,83.453344,https://www.bokarosalon339.com,+91-9803272515,4.0,8AM-10PM,Limited,No,Open,Yes,Has Website,Very Good (4.0-4.4)
Chatra Gym 340,Gym,Chatra,Station Road,"Station Road, Chatra, Jharkhand",23.248544,86.106608,https://www.chatragym340.com,+91-9617468048,4.0,9AM-8PM,Yes,Yes,Open,Yes,Has Website,Very Good (4.0-4.4)
Hazaribagh College 341,College,Hazaribagh,Adityapur,"Adityapur, Hazaribagh, Jharkhand",24.496537,86.607485,https://www.hazaribaghcollege341.com,+91-9277601056,3.6,8AM-10PM,No,No,Open,Yes,Has Website,Good (3.5-3.9)
Giridih Gym 342,Gym,Giridih,Adityapur,"Adityapur, Giridih, Jharkhand",23.879952,84.813108,https://www.giridihgym342.com,+91-9352329335,3.6,9AM-8PM,Yes,No,Open,Yes,Has Website,Good (3.5-3.9)
Bokaro Hardware 343,Hardware,Bokaro,Sakchi,"Sakchi, Bokaro, Jharkhand",24.185717,83.271077,https://www.bokarohardware343.com,+91-9533190034,4.1,7AM-9PM,Yes,No,Open,Yes,Has Website,Very Good (4.0-4.4)
Ramgarh Clinic 344,Clinic,Ramgarh,Kanke,"Kanke, Ramgarh, Jharkhand",23.964423,87.001421,https://www.ramgarhclinic344.com,+91-9490136011,4.7,9AM-8PM,No,No,Open,Yes,Has Website,Excellent (4.5-5.0)
Khunti Office 345,Office,Khunti,Kokar,"Kokar, Khunti, Jharkhand",23.307597,83.589748,https://www.khuntioffice345.com,+91-9807499502,3.8,24 Hours,Limited,No,Open,Yes,Has Website,Good (3.5-3.9)
Jamshedpur Grocery Store 346,Grocery Store,Jamshedpur,Civil Lines,"Civil Lines, Jamshedpur, Jharkhand",23.427266,86.487355,https://www.jamshedpurgrocerystore346.com,+91-9897264993,4.6,8AM-10PM,Yes,Yes,Open,Yes,Has Website,Excellent (4.5-5.0)
Sahibganj Electronics 347,Electronics,Sahibganj,Lower Bazar,"Lower Bazar, Sahibganj, Jharkhand",24.294261,86.067152,https://www.sahibganjelectronics347.com,+91-9215712585,4.6,7AM-9PM,No,No,Open,Yes,Has Website,Excellent (4.5-5.0)
Simdega Hospital 348,Hospital,Simdega,Civil Lines,"Civil Lines, Simdega, Jharkhand",24.841564,83.217351,https://www.simdegahospital348.com,+91-9890503688,3.6,9AM-8PM,Limited,Yes,Open,Yes,Has Website,Good (3.5-3.9)
Hazaribagh Hospital 349,Hospital,Hazaribagh,Kokar,"Kokar, Hazaribagh, Jharkhand",24.395732,83.614216,https://www.hazaribaghhospital349.com,+91-9806008664,4.4,9AM-8PM,No,Yes,Open,Yes,Has Website,Very Good (4.0-4.4)
Medininagar Bank 350,Bank,Medininagar,Bus Stand,"Bus Stand, Medininagar, Jharkhand",23.308537,83.733487,https://www.medininagarbank350.com,+91-9543182078,4.4,24 Hours,Limited,No,Open,Yes,Has Website,Very Good (4.0-4.4)
Koderma Clinic 351,Clinic,Koderma,Market Area,"Market Area, Koderma, Jharkhand",22.552667,85.69667,https://www.kodermaclinic351.com,+91-9412007357,4.5,8AM-10PM,Limited,No,Open,Yes,Has Website,Excellent (4.5-5.0)
Khunti Grocery Store 352,Grocery Store,Khunti,Adityapur,"Adityapur, Khunti, Jharkhand",23.39111,85.482553,https://www.khuntigrocerystore352.com,+91-9816354624,4.6,24 Hours,No,Yes,Open,Yes,Has Website,Excellent (4.5-5.0)
Ranchi Grocery Store 353,Grocery Store,Ranchi,Bistupur,"Bistupur, Ranchi, Jharkhand",22.38598,85.881017,https://www.ranchigrocerystore353.com,+91-9314643586,3.9,24 Hours,Limited,No,Open,Yes,Has Website,Good (3.5-3.9)
Dumka Cafe 354,Cafe,Dumka,Market Area,"Market Area, Dumka, Jharkhand",24.210782,83.329226,https://www.dumkacafe354.com,+91-9974053994,4.2,8AM-10PM,Limited,No,Open,Yes,Has Website,Very Good (4.0-4.4)
Dumka Gym 355,Gym,Dumka,Kokar,"Kokar, Dumka, Jharkhand",23.943481,86.905939,https://www.dumkagym355.com,+91-9516133637,4.1,24 Hours,Limited,Yes,Open,Yes,Has Website,Very Good (4.0-4.4)
Ramgarh Jewelry 356,Jewelry,Ramgarh,Harmu,"Harmu, Ramgarh, Jharkhand",24.55655,86.641779,https://www.ramgarhjewelry356.com,+91-9575736188,4.7,24 Hours,Limited,Yes,Open,Yes,Has Website,Excellent (4.5-5.0)
Dumka Electronics 357,Electronics,Dumka,Sakchi,"Sakchi, Dumka, Jharkhand",22.482278,85.930635,https://www.dumkaelectronics357.com,+91-9300764570,4.9,7AM-9PM,No,Yes,Open,Yes,Has Website,Excellent (4.5-5.0)
Gumla Jewelry 358,Jewelry,Gumla,Bus Stand,"Bus Stand, Gumla, Jharkhand",22.3402,85.535944,https://www.gumlajewelry358.com,+91-9373821508,3.5,8AM-10PM,Yes,Yes,Open,Yes,Has Website,Good (3.5-3.9)
Jamshedpur School 359,School,Jamshedpur,Upper Bazar,"Upper Bazar, Jamshedpur, Jharkhand",24.747146,85.662435,https://www.jamshedpurschool359.com,+91-9810699207,4.0,24 Hours,Yes,No,Open,Yes,Has Website,Very Good (4.0-4.4)
Hazaribagh Clothing 360,Clothing,Hazaribagh,Adityapur,"Adityapur, Hazaribagh, Jharkhand",22.154529,85.220561,https://www.hazaribaghclothing360.com,+91-9546602768,4.3,24 Hours,Yes,Yes,Open,Yes,Has Website,Very Good (4.0-4.4)
Medininagar Hardware 361,Hardware,Medininagar,MG Road,"MG Road, Medininagar, Jharkhand",22.830723,87.001233,https://www.medininagarhardware361.com,+91-9763873742,4.3,7AM-9PM,Yes,No,Open,Yes,Has Website,Very Good (4.0-4.4)
Koderma Clothing 362,Clothing,Koderma,Harmu,"Harmu, Koderma, Jharkhand",24.705822,84.175309,https://www.kodermaclothing362.com,+91-9142817871,4.5,7AM-9PM,No,No,Open,Yes,Has Website,Excellent (4.5-5.0)
Ranchi Furniture 363,Furniture,Ranchi,Adityapur,"Adityapur, Ranchi, Jharkhand",24.416327,84.699832,https://www.ranchifurniture363.com,+91-9962017907,4.3,24 Hours,Limited,Yes,Open,Yes,Has Website,Very Good (4.0-4.4)
Dhanbad Gym 364,Gym,Dhanbad,Station Road,"Station Road, Dhanbad, Jharkhand",22.452184,87.025105,https://www.dhanbadgym364.com,+91-9677646075,4.3,8AM-10PM,Limited,Yes,Open,Yes,Has Website,Very Good (4.0-4.4)
Bokaro ATM 365,ATM,Bokaro,Market Area,"Market Area, Bokaro, Jharkhand",23.563263,86.010971,https://www.bokaroatm365.com,+91-9896045379,4.7,8AM-10PM,Yes,No,Open,Yes,Has Website,Excellent (4.5-5.0)
Jamshedpur Hardware 366,Hardware,Jamshedpur,Station Road,"Station Road, Jamshedpur, Jharkhand",22.169744,83.911969,https://www.jamshedpurhardware366.com,+91-9370484159,4.3,24 Hours,No,No,Open,Yes,Has Website,Very Good (4.0-4.4)
Godda College 367,College,Godda,Bistupur,"Bistupur, Godda, Jharkhand",22.899213,84.758007,https://www.goddacollege367.com,+91-9227029844,4.3,7AM-9PM,Limited,Yes,Open,Yes,Has Website,Very Good (4.0-4.4)
Khunti Hotel 368,Hotel,Khunti,Adityapur,"Adityapur, Khunti, Jharkhand",22.268407,86.347568,https://www.khuntihotel368.com,+91-9423572858,4.4,9AM-8PM,No,Yes,Open,Yes,Has Website,Very Good (4.0-4.4)
Gumla Bakery 369,Bakery,Gumla,Market Area,"Market Area, Gumla, Jharkhand",22.359144,84.76397,https://www.gumlabakery369.com,+91-9956292577,4.8,8AM-10PM,No,No,Open,Yes,Has Website,Excellent (4.5-5.0)
Gumla Clinic 370,Clinic,Gumla,Civil Lines,"Civil Lines, Gumla, Jharkhand",22.319705,83.220119,https://www.gumlaclinic370.com,+91-9740653308,4.1,24 Hours,Yes,No,Open,Yes,Has Website,Very Good (4.0-4.4)
Koderma ATM 371,ATM,Koderma,Lower Bazar,"Lower Bazar, Koderma, Jharkhand",23.487658,83.843817,https://www.kodermaatm371.com,+91-9337069279,4.4,7AM-9PM,Yes,Yes,Open,Yes,Has Website,Very Good (4.0-4.4)
Koderma Fuel Station 372,Fuel Station,Koderma,Adityapur,"Adityapur, Koderma, Jharkhand",22.169434,85.886741,https://www.kodermafuelstation372.com,+91-9369173782,3.6,9AM-8PM,No,No,Open,Yes,Has Website,Good (3.5-3.9)
Koderma Office 373,Office,Koderma,Market Area,"Market Area, Koderma, Jharkhand",22.250135,85.678063,https://www.kodermaoffice373.com,+91-9307767506,4.0,24 Hours,Limited,Yes,Open,Yes,Has Website,Very Good (4.0-4.4)
Khunti Hospital 374,Hospital,Khunti,Upper Bazar,"Upper Bazar, Khunti, Jharkhand",22.898999,84.91323,https://www.khuntihospital374.com,+91-9105188198,4.0,9AM-8PM,No,No,Open,Yes,Has Website,Very Good (4.0-4.4)
Medininagar Office 375,Office,Medininagar,Sakchi,"Sakchi, Medininagar, Jharkhand",23.338545,84.634966,https://www.medininagaroffice375.com,+91-9427997841,4.2,7AM-9PM,No,Yes,Open,Yes,Has Website,Very Good (4.0-4.4)
Chaibasa Electronics 376,Electronics,Chaibasa,Kokar,"Kokar, Chaibasa, Jharkhand",24.609007,83.50585,https://www.chaibasaelectronics376.com,+91-9180960086,4.8,7AM-9PM,Limited,No,Open,Yes,Has Website,Excellent (4.5-5.0)
Jamshedpur Electronics 377,Electronics,Jamshedpur,Adityapur,"Adityapur, Jamshedpur, Jharkhand",22.731849,86.775944,https://www.jamshedpurelectronics377.com,+91-9679473892,4.2,24 Hours,No,Yes,Open,Yes,Has Website,Very Good (4.0-4.4)
Deoghar Furniture 378,Furniture,Deoghar,Sakchi,"Sakchi, Deoghar, Jharkhand",23.45337,83.562216,https://www.deogharfurniture378.com,+91-9490697670,4.3,8AM-10PM,Limited,Yes,Open,Yes,Has Website,Very Good (4.0-4.4)
Hazaribagh Bakery 379,Bakery,Hazaribagh,Harmu,"Harmu, Hazaribagh, Jharkhand",24.796135,85.837653,https://www.hazaribaghbakery379.com,+91-9256980036,4.6,7AM-9PM,Yes,No,Open,Yes,Has Website,Excellent (4.5-5.0)
Chaibasa Hotel 380,Hotel,Chaibasa,MG Road,"MG Road, Chaibasa, Jharkhand",22.652056,85.874342,https://www.chaibasahotel380.com,+91-9656075031,4.9,9AM-8PM,No,Yes,Open,Yes,Has Website,Excellent (4.5-5.0)
Medininagar College 381,College,Medininagar,Station Road,"Station Road, Medininagar, Jharkhand",24.061209,85.285492,https://www.medininagarcollege381.com,+91-9990826848,3.9,8AM-10PM,No,No,Open,Yes,Has Website,Good (3.5-3.9)
Koderma Hospital 382,Hospital,Koderma,Lower Bazar,"Lower Bazar, Koderma, Jharkhand",22.183512,84.206346,https://www.kodermahospital382.com,+91-9339336253,4.3,9AM-8PM,No,Yes,Open,Yes,Has Website,Very Good (4.0-4.4)
Sahibganj Supermarket 383,Supermarket,Sahibganj,Civil Lines,"Civil Lines, Sahibganj, Jharkhand",22.639972,85.258165,https://www.sahibganjsupermarket383.com,+91-9401516912,3.8,24 Hours,Limited,Yes,Open,Yes,Has Website,Good (3.5-3.9)
Pakur Clothing 384,Clothing,Pakur,Upper Bazar,"Upper Bazar, Pakur, Jharkhand",22.940674,83.653355,https://www.pakurclothing384.com,+91-9825022076,4.2,8AM-10PM,Limited,No,Open,Yes,Has Website,Very Good (4.0-4.4)
Jamshedpur Clothing 385,Clothing,Jamshedpur,Civil Lines,"Civil Lines, Jamshedpur, Jharkhand",23.67046,83.844517,https://www.jamshedpurclothing385.com,+91-9775963880,4.3,7AM-9PM,Yes,No,Open,Yes,Has Website,Very Good (4.0-4.4)
Godda Gym 386,Gym,Godda,Harmu,"Harmu, Godda, Jharkhand",24.857731,85.750491,https://www.goddagym386.com,+91-9872608028,4.6,7AM-9PM,Yes,No,Open,Yes,Has Website,Excellent (4.5-5.0)
Latehar Salon 387,Salon,Latehar,Civil Lines,"Civil Lines, Latehar, Jharkhand",22.608091,84.843067,https://www.lateharsalon387.com,+91-9253235987,4.7,24 Hours,Yes,No,Open,Yes,Has Website,Excellent (4.5-5.0)
Lohardaga School 388,School,Lohardaga,Station Road,"Station Road, Lohardaga, Jharkhand",22.639441,84.741848,https://www.lohardagaschool388.com,+91-9216576275,3.5,9AM-8PM,Yes,Yes,Open,Yes,Has Website,Good (3.5-3.9)
Chatra Salon 389,Salon,Chatra,Harmu,"Harmu, Chatra, Jharkhand",22.06711,86.335473,https://www.chatrasalon389.com,+91-9640445621,4.6,8AM-10PM,Limited,Yes,Open,Yes,Has Website,Excellent (4.5-5.0)
Pakur College 390,College,Pakur,Adityapur,"Adityapur, Pakur, Jharkhand",23.212052,86.699297,https://www.pakurcollege390.com,+91-9849088260,4.3,9AM-8PM,No,Yes,Open,Yes,Has Website,Very Good (4.0-4.4)
Chaibasa Supermarket 391,Supermarket,Chaibasa,Sakchi,"Sakchi, Chaibasa, Jharkhand",24.247577,86.840341,https://www.chaibasasupermarket391.com,+91-9189998443,3.9,24 Hours,Yes,Yes,Open,Yes,Has Website,Good (3.5-3.9)
Lohardaga Restaurant 392,Restaurant,Lohardaga,Adityapur,"Adityapur, Lohardaga, Jharkhand",22.303486,83.228776,https://www.lohardagarestaurant392.com,+91-9802813548,3.8,9AM-8PM,No,Yes,Open,Yes,Has Website,Good (3.5-3.9)
Koderma ATM 393,ATM,Koderma,Harmu,"Harmu, Koderma, Jharkhand",22.710898,86.619908,https://www.kodermaatm393.com,+91-9554795749,4.3,9AM-8PM,Yes,No,Open,Yes,Has Website,Very Good (4.0-4.4)
Latehar Clinic 394,Clinic,Latehar,Civil Lines,"Civil Lines, Latehar, Jharkhand",23.060639,85.419645,https://www.lateharclinic394.com,+91-9372491666,5.0,9AM-8PM,Limited,Yes,Open,Yes,Has Website,Excellent (4.5-5.0)
Giridih Grocery Store 395,Grocery Store,Giridih,Sakchi,"Sakchi, Giridih, Jharkhand",24.299328,86.996981,https://www.giridihgrocerystore395.com,+91-9207673349,3.8,7AM-9PM,Yes,No,Open,Yes,Has Website,Good (3.5-3.9)
Dhanbad Restaurant 396,Restaurant,Dhanbad,Lower Bazar,"Lower Bazar, Dhanbad, Jharkhand",22.385985,86.903447,https://www.dhanbadrestaurant396.com,+91-9567482967,3.6,24 Hours,Yes,Yes,Open,Yes,Has Website,Good (3.5-3.9)
Godda Bank 397,Bank,Godda,Harmu,"Harmu, Godda, Jharkhand",23.918526,84.345877,https://www.goddabank397.com,+91-9741531280,3.6,9AM-8PM,No,Yes,Open,Yes,Has Website,Good (3.5-3.9)
Simdega Office 398,Office,Simdega,Bus Stand,"Bus Stand, Simdega, Jharkhand",22.534239,86.335838,https://www.simdegaoffice398.com,+91-9648196577,4.3,8AM-10PM,Limited,Yes,Open,Yes,Has Website,Very Good (4.0-4.4)
Koderma Clothing 399,Clothing,Koderma,Main Road,"Main Road, Koderma, Jharkhand",24.876938,83.547371,https://www.kodermaclothing399.com,+91-9396284956,4.7,9AM-8PM,No,Yes,Open,Yes,Has Website,Excellent (4.5-5.0)
Dhanbad Restaurant 400,Restaurant,Dhanbad,Station Road,"Station Road, Dhanbad, Jharkhand",23.598778,86.104555,https://www.dhanbadrestaurant400.com,+91-9700343937,4.9,24 Hours,Yes,Yes,Open,Yes,Has Website,Excellent (4.5-5.0)
Lohardaga Bank 401,Bank,Lohardaga,Main Road,"Main Road, Lohardaga, Jharkhand",22.733323,84.828539,https://www.lohardagabank401.com,+91-9214315878,4.3,24 Hours,Yes,No,Open,Yes,Has Website,Very Good (4.0-4.4)
Chaibasa Hospital 402,Hospital,Chaibasa,Kokar,"Kokar, Chaibasa, Jharkhand",23.278306,84.708321,https://www.chaibasahospital402.com,+91-9619293644,4.7,9AM-8PM,Limited,No,Open,Yes,Has Website,Excellent (4.5-5.0)
Latehar Restaurant 403,Restaurant,Latehar,Station Road,"Station Road, Latehar, Jharkhand",22.723459,84.730693,https://www.lateharrestaurant403.com,+91-9946812945,5.0,8AM-10PM,No,No,Open,Yes,Has Website,Excellent (4.5-5.0)
Gumla Gym 404,Gym,Gumla,Main Road,"Main Road, Gumla, Jharkhand",24.052456,84.253399,https://www.gumlagym404.com,+91-9408474841,3.6,7AM-9PM,Limited,Yes,Open,Yes,Has Website,Good (3.5-3.9)
Khunti Hardware 405,Hardware,Khunti,Market Area,"Market Area, Khunti, Jharkhand",24.632949,84.276303,https://www.khuntihardware405.com,+91-9901179178,4.5,8AM-10PM,Yes,Yes,Open,Yes,Has Website,Excellent (4.5-5.0)
Giridih Electronics 406,Electronics,Giridih,Market Area,"Market Area, Giridih, Jharkhand",24.454821,86.545339,https://www.giridihelectronics406.com,+91-9482281482,3.7,7AM-9PM,Limited,No,Open,Yes,Has Website,Good (3.5-3.9)
Gumla Restaurant 407,Restaurant,Gumla,Main Road,"Main Road, Gumla, Jharkhand",24.494032,84.684786,https://www.gumlarestaurant407.com,+91-9438676325,4.2,9AM-8PM,Yes,No,Open,Yes,Has Website,Very Good (4.0-4.4)
Lohardaga Clothing 408,Clothing,Lohardaga,Civil Lines,"Civil Lines, Lohardaga, Jharkhand",22.112445,86.39708,https://www.lohardagaclothing408.com,+91-9613592269,4.9,24 Hours,No,Yes,Open,Yes,Has Website,Excellent (4.5-5.0)
Simdega Grocery Store 409,Grocery Store,Simdega,Sakchi,"Sakchi, Simdega, Jharkhand",22.896954,83.233674,https://www.simdegagrocerystore409.com,+91-9823812653,3.8,24 Hours,No,No,Open,Yes,Has Website,Good (3.5-3.9)
Chaibasa Clinic 410,Clinic,Chaibasa,Market Area,"Market Area, Chaibasa, Jharkhand",22.758225,87.034107,https://www.chaibasaclinic410.com,+91-9468397022,4.0,8AM-10PM,No,No,Open,Yes,Has Website,Very Good (4.0-4.4)
Chaibasa Bank 411,Bank,Chaibasa,Sakchi,"Sakchi, Chaibasa, Jharkhand",22.489668,83.724557,https://www.chaibasabank411.com,+91-9718360105,4.5,24 Hours,Yes,No,Open,Yes,Has Website,Excellent (4.5-5.0)
Deoghar Electronics 412,Electronics,Deoghar,Upper Bazar,"Upper Bazar, Deoghar, Jharkhand",24.827444,83.798192,https://www.deogharelectronics412.com,+91-9965079822,3.5,8AM-10PM,Limited,No,Open,Yes,Has Website,Good (3.5-3.9)
Chaibasa Furniture 413,Furniture,Chaibasa,Adityapur,"Adityapur, Chaibasa, Jharkhand",24.525506,83.390837,https://www.chaibasafurniture413.com,+91-9206273380,4.5,24 Hours,No,Yes,Open,Yes,Has Website,Excellent (4.5-5.0)
Chaibasa Hardware 414,Hardware,Chaibasa,MG Road,"MG Road, Chaibasa, Jharkhand",23.03092,85.429966,https://www.chaibasahardware414.com,+91-9969747935,3.9,7AM-9PM,No,Yes,Open,Yes,Has Website,Good (3.5-3.9)
Koderma Hospital 415,Hospital,Koderma,Kanke,"Kanke, Koderma, Jharkhand",23.565315,87.117493,https://www.kodermahospital415.com,+91-9405596297,4.0,9AM-8PM,Limited,No,Open,Yes,Has Website,Very Good (4.0-4.4)
Chatra Bank 416,Bank,Chatra,Bus Stand,"Bus Stand, Chatra, Jharkhand",23.341256,87.026378,https://www.chatrabank416.com,+91-9279932861,4.5,9AM-8PM,Yes,Yes,Open,Yes,Has Website,Excellent (4.5-5.0)
Giridih Hardware 417,Hardware,Giridih,MG Road,"MG Road, Giridih, Jharkhand",22.900635,84.365425,https://www.giridihhardware417.com,+91-9387196293,4.4,9AM-8PM,No,No,Open,Yes,Has Website,Very Good (4.0-4.4)
Hazaribagh Bakery 418,Bakery,Hazaribagh,Lower Bazar,"Lower Bazar, Hazaribagh, Jharkhand",22.019303,86.11109,https://www.hazaribaghbakery418.com,+91-9810841299,3.9,7AM-9PM,Yes,Yes,Open,Yes,Has Website,Good (3.5-3.9)
Bokaro Grocery Store 419,Grocery Store,Bokaro,Station Road,"Station Road, Bokaro, Jharkhand",24.760381,85.092743,https://www.bokarogrocerystore419.com,+91-9157794625,3.5,7AM-9PM,Yes,No,Open,Yes,Has Website,Good (3.5-3.9)
Dhanbad Supermarket 420,Supermarket,Dhanbad,Kanke,"Kanke, Dhanbad, Jharkhand",24.744769,84.759385,https://www.dhanbadsupermarket420.com,+91-9346269087,3.9,8AM-10PM,Yes,Yes,Open,Yes,Has Website,Good (3.5-3.9)
Khunti Cafe 421,Cafe,Khunti,Lower Bazar,"Lower Bazar, Khunti, Jharkhand",24.695817,86.656965,https://www.khunticafe421.com,+91-9601645174,5.0,9AM-8PM,Yes,Yes,Open,Yes,Has Website,Excellent (4.5-5.0)
Sahibganj School 422,School,Sahibganj,Kanke,"Kanke, Sahibganj, Jharkhand",24.196735,86.709175,https://www.sahibganjschool422.com,+91-9567053396,4.3,24 Hours,No,No,Open,Yes,Has Website,Very Good (4.0-4.4)
Dhanbad Clothing 423,Clothing,Dhanbad,Sakchi,"Sakchi, Dhanbad, Jharkhand",22.873605,84.848815,https://www.dhanbadclothing423.com,+91-9267200433,4.0,8AM-10PM,No,No,Open,Yes,Has Website,Very Good (4.0-4.4)
Ranchi Clinic 424,Clinic,Ranchi,Kokar,"Kokar, Ranchi, Jharkhand",24.716265,86.98783,https://www.ranchiclinic424.com,+91-9612246868,3.9,24 Hours,Limited,Yes,Open,Yes,Has Website,Good (3.5-3.9)
Khunti Clinic 425,Clinic,Khunti,Market Area,"Market Area, Khunti, Jharkhand",23.185208,85.442217,https://www.khunticlinic425.com,+91-9523861817,3.9,9AM-8PM,No,Yes,Open,Yes,Has Website,Good (3.5-3.9)
Pakur Hotel 426,Hotel,Pakur,Kanke,"Kanke, Pakur, Jharkhand",22.668685,86.258153,https://www.pakurhotel426.com,+91-9758435897,4.7,24 Hours,Limited,No,Open,Yes,Has Website,Excellent (4.5-5.0)
Dhanbad Electronics 427,Electronics,Dhanbad,Civil Lines,"Civil Lines, Dhanbad, Jharkhand",22.359872,83.641425,https://www.dhanbadelectronics427.com,+91-9588920837,4.4,9AM-8PM,Yes,No,Open,Yes,Has Website,Very Good (4.0-4.4)
Jamshedpur Supermarket 428,Supermarket,Jamshedpur,Adityapur,"Adityapur, Jamshedpur, Jharkhand",22.016393,87.08933,https://www.jamshedpursupermarket428.com,+91-9402918178,3.9,7AM-9PM,Yes,Yes,Open,Yes,Has Website,Good (3.5-3.9)
Latehar Restaurant 429,Restaurant,Latehar,Market Area,"Market Area, Latehar, Jharkhand",22.975739,84.446307,https://www.lateharrestaurant429.com,+91-9958416162,4.2,7AM-9PM,No,Yes,Open,Yes,Has Website,Very Good (4.0-4.4)
Chaibasa Cafe 430,Cafe,Chaibasa,Upper Bazar,"Upper Bazar, Chaibasa, Jharkhand",23.127265,85.372768,https://www.chaibasacafe430.com,+91-9294995530,3.8,9AM-8PM,Yes,Yes,Open,Yes,Has Website,Good (3.5-3.9)
Godda Clothing 431,Clothing,Godda,Upper Bazar,"Upper Bazar, Godda, Jharkhand",24.874917,84.188649,https://www.goddaclothing431.com,+91-9135981405,3.8,8AM-10PM,No,No,Open,Yes,Has Website,Good (3.5-3.9)
Medininagar Furniture 432,Furniture,Medininagar,Civil Lines,"Civil Lines, Medininagar, Jharkhand",23.837493,83.368744,https://www.medininagarfurniture432.com,+91-9690106975,4.3,24 Hours,Yes,No,Open,Yes,Has Website,Very Good (4.0-4.4)
Ramgarh Office 433,Office,Ramgarh,Station Road,"Station Road, Ramgarh, Jharkhand",22.657898,84.936647,https://www.ramgarhoffice433.com,+91-9116178827,3.8,7AM-9PM,No,Yes,Open,Yes,Has Website,Good (3.5-3.9)
Lohardaga Cafe 434,Cafe,Lohardaga,Upper Bazar,"Upper Bazar, Lohardaga, Jharkhand",24.022254,85.953626,https://www.lohardagacafe434.com,+91-9266421332,4.1,8AM-10PM,No,Yes,Open,Yes,Has Website,Very Good (4.0-4.4)
Medininagar School 435,School,Medininagar,Upper Bazar,"Upper Bazar, Medininagar, Jharkhand",23.825397,83.439101,https://www.medininagarschool435.com,+91-9792107026,3.7,8AM-10PM,No,Yes,Open,Yes,Has Website,Good (3.5-3.9)
Koderma Clinic 436,Clinic,Koderma,Upper Bazar,"Upper Bazar, Koderma, Jharkhand",22.991953,86.767184,https://www.kodermaclinic436.com,+91-9887255513,3.8,24 Hours,Limited,Yes,Open,Yes,Has Website,Good (3.5-3.9)
Latehar Cafe 437,Cafe,Latehar,Kokar,"Kokar, Latehar, Jharkhand",23.2625,84.378858,https://www.lateharcafe437.com,+91-9848438614,4.2,24 Hours,No,No,Open,Yes,Has Website,Very Good (4.0-4.4)
Gumla School 438,School,Gumla,Civil Lines,"Civil Lines, Gumla, Jharkhand",22.15663,83.820102,https://www.gumlaschool438.com,+91-9417476097,4.7,9AM-8PM,Yes,No,Open,Yes,Has Website,Excellent (4.5-5.0)
Ranchi Bakery 439,Bakery,Ranchi,Harmu,"Harmu, Ranchi, Jharkhand",24.520488,86.304066,https://www.ranchibakery439.com,+91-9356395115,4.0,9AM-8PM,Yes,No,Open,Yes,Has Website,Very Good (4.0-4.4)
Chatra Supermarket 440,Supermarket,Chatra,Bus Stand,"Bus Stand, Chatra, Jharkhand",22.9178,85.763616,https://www.chatrasupermarket440.com,+91-9218609961,3.6,7AM-9PM,Yes,Yes,Open,Yes,Has Website,Good (3.5-3.9)
Bokaro Electronics 441,Electronics,Bokaro,Sakchi,"Sakchi, Bokaro, Jharkhand",22.52485,83.327269,https://www.bokaroelectronics441.com,+91-9789075603,4.8,24 Hours,Yes,No,Open,Yes,Has Website,Excellent (4.5-5.0)
Dhanbad School 442,School,Dhanbad,Main Road,"Main Road, Dhanbad, Jharkhand",24.740633,84.034952,https://www.dhanbadschool442.com,+91-9627642633,4.9,9AM-8PM,Limited,Yes,Open,Yes,Has Website,Excellent (4.5-5.0)
Pakur Clinic 443,Clinic,Pakur,Lower Bazar,"Lower Bazar, Pakur, Jharkhand",23.057206,86.033735,https://www.pakurclinic443.com,+91-9984379899,4.4,7AM-9PM,No,Yes,Open,Yes,Has Website,Very Good (4.0-4.4)
Bokaro Gym 444,Gym,Bokaro,Station Road,"Station Road, Bokaro, Jharkhand",24.125516,85.326644,https://www.bokarogym444.com,+91-9303431575,3.8,8AM-10PM,Limited,No,Open,Yes,Has Website,Good (3.5-3.9)
Koderma Grocery Store 445,Grocery Store,Koderma,Harmu,"Harmu, Koderma, Jharkhand",23.02389,85.034882,https://www.kodermagrocerystore445.com,+91-9814298538,4.1,8AM-10PM,Limited,No,Open,Yes,Has Website,Very Good (4.0-4.4)
Hazaribagh Hardware 446,Hardware,Hazaribagh,Adityapur,"Adityapur, Hazaribagh, Jharkhand",24.945301,84.972049,https://www.hazaribaghhardware446.com,+91-9478305093,4.9,24 Hours,No,No,Open,Yes,Has Website,Excellent (4.5-5.0)
Chatra Hardware 447,Hardware,Chatra,Market Area,"Market Area, Chatra, Jharkhand",23.639434,84.055713,https://www.chatrahardware447.com,+91-9922172936,4.3,24 Hours,No,No,Open,Yes,Has Website,Very Good (4.0-4.4)
Jamshedpur Restaurant 448,Restaurant,Jamshedpur,Bus Stand,"Bus Stand, Jamshedpur, Jharkhand",23.737288,85.270437,https://www.jamshedpurrestaurant448.com,+91-9424100009,3.5,24 Hours,Yes,No,Open,Yes,Has Website,Good (3.5-3.9)
Gumla Gym 449,Gym,Gumla,Harmu,"Harmu, Gumla, Jharkhand",24.727767,83.818859,https://www.gumlagym449.com,+91-9140519046,4.2,24 Hours,No,Yes,Open,Yes,Has Website,Very Good (4.0-4.4)
Dumka Jewelry 450,Jewelry,Dumka,Station Road,"Station Road, Dumka, Jharkhand",23.661461,85.47626,https://www.dumkajewelry450.com,+91-9333471497,4.6,9AM-8PM,Yes,No,Open,Yes,Has Website,Excellent (4.5-5.0)
Bokaro Hospital 451,Hospital,Bokaro,Harmu,"Harmu, Bokaro, Jharkhand",23.876764,83.349486,https://www.bokarohospital451.com,+91-9967949720,4.4,24 Hours,No,No,Open,Yes,Has Website,Very Good (4.0-4.4)
Giridih Grocery Store 452,Grocery Store,Giridih,Kokar,"Kokar, Giridih, Jharkhand",23.908338,85.609207,https://www.giridihgrocerystore452.com,+91-9112277573,4.5,7AM-9PM,No,Yes,Open,Yes,Has Website,Excellent (4.5-5.0)
Lohardaga Clinic 453,Clinic,Lohardaga,Civil Lines,"Civil Lines, Lohardaga, Jharkhand",22.930495,85.991075,https://www.lohardagaclinic453.com,+91-9264494545,3.6,9AM-8PM,Limited,Yes,Open,Yes,Has Website,Good (3.5-3.9)
Dumka ATM 454,ATM,Dumka,Upper Bazar,"Upper Bazar, Dumka, Jharkhand",23.132967,83.728756,https://www.dumkaatm454.com,+91-9188632141,4.2,9AM-8PM,No,Yes,Open,Yes,Has Website,Very Good (4.0-4.4)
Pakur Gym 455,Gym,Pakur,Upper Bazar,"Upper Bazar, Pakur, Jharkhand",24.043612,86.248132,https://www.pakurgym455.com,+91-9616386600,4.3,8AM-10PM,Limited,Yes,Open,Yes,Has Website,Very Good (4.0-4.4)
Chaibasa Hotel 456,Hotel,Chaibasa,Upper Bazar,"Upper Bazar, Chaibasa, Jharkhand",23.240197,85.938952,https://www.chaibasahotel456.com,+91-9718494872,3.6,9AM-8PM,No,No,Open,Yes,Has Website,Good (3.5-3.9)
Khunti Hardware 457,Hardware,Khunti,Harmu,"Harmu, Khunti, Jharkhand",23.91623,86.278725,https://www.khuntihardware457.com,+91-9281736451,5.0,8AM-10PM,No,Yes,Open,Yes,Has Website,Excellent (4.5-5.0)
Khunti Electronics 458,Electronics,Khunti,Civil Lines,"Civil Lines, Khunti, Jharkhand",24.223201,86.611057,https://www.khuntielectronics458.com,+91-9220658235,4.6,8AM-10PM,No,Yes,Open,Yes,Has Website,Excellent (4.5-5.0)
Dumka Grocery Store 459,Grocery Store,Dumka,Sakchi,"Sakchi, Dumka, Jharkhand",23.363571,84.527507,https://www.dumkagrocerystore459.com,+91-9894582888,4.3,24 Hours,Limited,No,Open,Yes,Has Website,Very Good (4.0-4.4)
Ranchi Supermarket 460,Supermarket,Ranchi,Bistupur,"Bistupur, Ranchi, Jharkhand",23.699015,85.854113,https://www.ranchisupermarket460.com,+91-9146688450,3.9,8AM-10PM,Limited,No,Open,Yes,Has Website,Good (3.5-3.9)
Koderma Fuel Station 461,Fuel Station,Koderma,Main Road,"Main Road, Koderma, Jharkhand",22.149793,85.841491,https://www.kodermafuelstation461.com,+91-9811871111,4.8,7AM-9PM,Yes,No,Open,Yes,Has Website,Excellent (4.5-5.0)
Giridih Bank 462,Bank,Giridih,Bistupur,"Bistupur, Giridih, Jharkhand",23.475621,86.038755,https://www.giridihbank462.com,+91-9438718269,4.2,7AM-9PM,Yes,Yes,Open,Yes,Has Website,Very Good (4.0-4.4)
Gumla Fuel Station 463,Fuel Station,Gumla,Kokar,"Kokar, Gumla, Jharkhand",22.014465,84.189569,https://www.gumlafuelstation463.com,+91-9668455421,4.0,8AM-10PM,Yes,No,Open,Yes,Has Website,Very Good (4.0-4.4)
Khunti Mobile Store 464,Mobile Store,Khunti,Kanke,"Kanke, Khunti, Jharkhand",22.856979,87.183978,https://www.khuntimobilestore464.com,+91-9638214657,3.9,24 Hours,No,Yes,Open,Yes,Has Website,Good (3.5-3.9)
Giridih Jewelry 465,Jewelry,Giridih,Civil Lines,"Civil Lines, Giridih, Jharkhand",22.975358,84.771386,https://www.giridihjewelry465.com,+91-9247382533,3.6,8AM-10PM,No,Yes,Open,Yes,Has Website,Good (3.5-3.9)
Pakur Supermarket 466,Supermarket,Pakur,Bus Stand,"Bus Stand, Pakur, Jharkhand",24.679206,84.517139,https://www.pakursupermarket466.com,+91-9682219061,3.7,8AM-10PM,Yes,No,Open,Yes,Has Website,Good (3.5-3.9)
Deoghar Gym 467,Gym,Deoghar,Bistupur,"Bistupur, Deoghar, Jharkhand",24.937057,87.103108,https://www.deoghargym467.com,+91-9255856197,4.5,24 Hours,Yes,Yes,Open,Yes,Has Website,Excellent (4.5-5.0)
Deoghar Hardware 468,Hardware,Deoghar,Kokar,"Kokar, Deoghar, Jharkhand",22.03845,84.47475,https://www.deogharhardware468.com,+91-9544572227,4.9,24 Hours,Yes,Yes,Open,Yes,Has Website,Excellent (4.5-5.0)
Hazaribagh Supermarket 469,Supermarket,Hazaribagh,Main Road,"Main Road, Hazaribagh, Jharkhand",24.237342,85.647926,https://www.hazaribaghsupermarket469.com,+91-9386541544,4.4,8AM-10PM,Yes,Yes,Open,Yes,Has Website,Very Good (4.0-4.4)
Latehar Hotel 470,Hotel,Latehar,Civil Lines,"Civil Lines, Latehar, Jharkhand",23.456974,85.618847,https://www.lateharhotel470.com,+91-9864524716,4.5,9AM-8PM,No,Yes,Open,Yes,Has Website,Excellent (4.5-5.0)
Giridih Electronics 471,Electronics,Giridih,Main Road,"Main Road, Giridih, Jharkhand",23.175767,87.07526,https://www.giridihelectronics471.com,+91-9389758574,4.9,8AM-10PM,Yes,Yes,Open,Yes,Has Website,Excellent (4.5-5.0)
Chatra Fuel Station 472,Fuel Station,Chatra,Sakchi,"Sakchi, Chatra, Jharkhand",24.013588,86.6671,https://www.chatrafuelstation472.com,+91-9364982130,4.1,9AM-8PM,Limited,No,Open,Yes,Has Website,Very Good (4.0-4.4)
Lohardaga School 473,School,Lohardaga,Harmu,"Harmu, Lohardaga, Jharkhand",23.558478,85.765575,https://www.lohardagaschool473.com,+91-9856035092,4.7,9AM-8PM,No,Yes,Open,Yes,Has Website,Excellent (4.5-5.0)
Gumla Gym 474,Gym,Gumla,Bistupur,"Bistupur, Gumla, Jharkhand",24.901492,83.357006,https://www.gumlagym474.com,+91-9515965279,4.3,8AM-10PM,No,No,Open,Yes,Has Website,Very Good (4.0-4.4)
Dumka Furniture 475,Furniture,Dumka,Sakchi,"Sakchi, Dumka, Jharkhand",22.44946,84.377679,https://www.dumkafurniture475.com,+91-9158569033,4.5,9AM-8PM,Yes,Yes,Open,Yes,Has Website,Excellent (4.5-5.0)
Gumla Hospital 476,Hospital,Gumla,Civil Lines,"Civil Lines, Gumla, Jharkhand",23.1292,84.493844,https://www.gumlahospital476.com,+91-9126749178,3.8,8AM-10PM,No,Yes,Open,Yes,Has Website,Good (3.5-3.9)
Koderma Hardware 477,Hardware,Koderma,Kokar,"Kokar, Koderma, Jharkhand",24.339459,86.073499,https://www.kodermahardware477.com,+91-9232654592,3.6,24 Hours,Yes,No,Open,Yes,Has Website,Good (3.5-3.9)
Chatra Gym 478,Gym,Chatra,Civil Lines,"Civil Lines, Chatra, Jharkhand",23.086036,84.722428,https://www.chatragym478.com,+91-9924913247,3.8,8AM-10PM,Yes,Yes,Open,Yes,Has Website,Good (3.5-3.9)
Pakur Cafe 479,Cafe,Pakur,Bus Stand,"Bus Stand, Pakur, Jharkhand",22.878555,86.274522,https://www.pakurcafe479.com,+91-9579166131,3.9,8AM-10PM,Yes,Yes,Open,Yes,Has Website,Good (3.5-3.9)
Ranchi Jewelry 480,Jewelry,Ranchi,Sakchi,"Sakchi, Ranchi, Jharkhand",23.442883,85.194569,https://www.ranchijewelry480.com,+91-9966997739,3.5,8AM-10PM,Limited,No,Open,Yes,Has Website,Good (3.5-3.9)
